cleanup_name,location_address,city_name,state_code,postal_code,county_name,epa_id,brownfields_link_csv,rcra_csv,superfund_link_csv,echo_link_csv,response_link_csv,re_powering_csv,frs_link_csv,map_site_csv,lat,long,geo_method
1-15 MEADOW ST.,1-15 MEADOW ST.,GREENVILLE,SC,29601,GREENVILLE COUNTY,,"https://ofmpub.epa.gov/apex/cimc/f?p=100:31::::31,0:P31_ID:206742",,,,,https://ofmpub.epa.gov/apex/cimc/f?p=CIMC:REPOWER:::::P6_REFERENCE:33594,https://ofmpub.epa.gov/frs_public2/fii_query_detail.disp_program_facility?p_registry_id=110070117651,https://ofmpub.epa.gov/apex/cimcf?p=CIMC:MAP:::::P71_GEOSEARCH:34.85249 -82.40918,34.852325,-82.40886,census
1006 W. WASHINGTON STREET,1006 W. WASHINGTON STREET,GREENVILLE,SC,29602,GREENVILLE,,"https://ofmpub.epa.gov/apex/cimc/f?p=100:31::::31,0:P31_ID:67722",,,,,https://ofmpub.epa.gov/apex/cimc/f?p=CIMC:REPOWER:::::P6_REFERENCE:30876,https://ofmpub.epa.gov/frs_public2/fii_query_detail.disp_program_facility?p_registry_id=110038718466,https://ofmpub.epa.gov/apex/cimcf?p=CIMC:MAP:::::P71_GEOSEARCH:34.8573 -82.41232,34.8573601428571,-82.4121992857143,osm
1010 AND 1012 LOWNDES HILL ROAD,1010 LOWNDES HILL ROAD,GREENVILLE,SC,29606,GREENVILLE COUNTY,,"https://ofmpub.epa.gov/apex/cimc/f?p=100:31::::31,0:P31_ID:223661",,,,,https://ofmpub.epa.gov/apex/cimc/f?p=CIMC:REPOWER:::::P6_REFERENCE:,https://ofmpub.epa.gov/frs_public2/fii_query_detail.disp_program_facility?p_registry_id=110070247614,https://ofmpub.epa.gov/apex/cimcf?p=CIMC:MAP:::::P71_GEOSEARCH:34.85475 -82.35315,34.85475,-82.35338,census
103 W MAIN STREET,103 W MAIN STREET,LAKE CITY,SC,29560,FLORENCE,,"https://ofmpub.epa.gov/apex/cimc/f?p=100:31::::31,0:P31_ID:241595",,,,,https://ofmpub.epa.gov/apex/cimc/f?p=CIMC:REPOWER:::::P6_REFERENCE:,https://ofmpub.epa.gov/frs_public2/fii_query_detail.disp_program_facility?p_registry_id=110070790100,https://ofmpub.epa.gov/apex/cimcf?p=CIMC:MAP:::::P71_GEOSEARCH:33.872987 -79.754791,33.872846,-79.754537,osm
104 RUTHERFORD STREET,104 RUTHERFORD STREET,GREENVILLE,SC,29602,GREENVILLE,,"https://ofmpub.epa.gov/apex/cimc/f?p=100:31::::31,0:P31_ID:61981",,,,,https://ofmpub.epa.gov/apex/cimc/f?p=CIMC:REPOWER:::::P6_REFERENCE:30850,https://ofmpub.epa.gov/frs_public2/fii_query_detail.disp_program_facility?p_registry_id=110038716404,https://ofmpub.epa.gov/apex/cimcf?p=CIMC:MAP:::::P71_GEOSEARCH:34.86048 -82.40456,34.859913,-82.40452,census
106 /154 AUGUSTA STREET,104 & 154 AUGUSTA STREET,GREENVILLE,SC,29602,GREENVILLE,,"https://ofmpub.epa.gov/apex/cimc/f?p=100:31::::31,0:P31_ID:122947",,,,,https://ofmpub.epa.gov/apex/cimc/f?p=CIMC:REPOWER:::::P6_REFERENCE:32209,https://ofmpub.epa.gov/frs_public2/fii_query_detail.disp_program_facility?p_registry_id=110043637366,https://ofmpub.epa.gov/apex/cimcf?p=CIMC:MAP:::::P71_GEOSEARCH:34.842299 -82.406658,34.8433437902199,-82.4054604804109,osm
107 PETE HOLLIS BLVD.,107 PETE HOLLIS BLVD.,GREENVILLE,SC,29609,GREENVILLE,,"https://ofmpub.epa.gov/apex/cimc/f?p=100:31::::31,0:P31_ID:149863",,,,,https://ofmpub.epa.gov/apex/cimc/f?p=CIMC:REPOWER:::::P6_REFERENCE:32859,https://ofmpub.epa.gov/frs_public2/fii_query_detail.disp_program_facility?p_registry_id=110054365851,https://ofmpub.epa.gov/apex/cimcf?p=CIMC:MAP:::::P71_GEOSEARCH:34.860355 -82.406178,34.8624114,-82.4077688,osm
109 GULF STREET,109 GULF STREET,EASLEY,SC,29641,,,"https://ofmpub.epa.gov/apex/cimc/f?p=100:31::::31,0:P31_ID:248372",,,,,,,https://ofmpub.epa.gov/apex/cimcf?p=CIMC:MAP:::::P71_GEOSEARCH:34.827646 -82.609508,34.827744,-82.60977,census
109 WEST STONE AVENUE,109 WEST STONE AVENUE,GREENVILLE,SC,29609,GREENVILLE COUNTY,,"https://ofmpub.epa.gov/apex/cimc/f?p=100:31::::31,0:P31_ID:219924",,,,,https://ofmpub.epa.gov/apex/cimc/f?p=CIMC:REPOWER:::::P6_REFERENCE:,https://ofmpub.epa.gov/frs_public2/fii_query_detail.disp_program_facility?p_registry_id=110070247543,https://ofmpub.epa.gov/apex/cimcf?p=CIMC:MAP:::::P71_GEOSEARCH:34.8618 -82.39717,34.86174,-82.39643,census
1108 COOK STREET,1108 COOK STREET,GREENVILLE,SC,29601,GREENVILLE COUNTY,,"https://ofmpub.epa.gov/apex/cimc/f?p=100:31::::31,0:P31_ID:223681",,,,,https://ofmpub.epa.gov/apex/cimc/f?p=CIMC:REPOWER:::::P6_REFERENCE:,https://ofmpub.epa.gov/frs_public2/fii_query_detail.disp_program_facility?p_registry_id=110070525610,https://ofmpub.epa.gov/apex/cimcf?p=CIMC:MAP:::::P71_GEOSEARCH:34.86067 -82.4129,34.8576487,-82.412753,osm
111 WELBORN,111 WELBORN ST.,GREENVILLE,SC,29601,GREENVILLE COUNTY,,"https://ofmpub.epa.gov/apex/cimc/f?p=100:31::::31,0:P31_ID:206743",,,,,https://ofmpub.epa.gov/apex/cimc/f?p=CIMC:REPOWER:::::P6_REFERENCE:,https://ofmpub.epa.gov/frs_public2/fii_query_detail.disp_program_facility?p_registry_id=110070247857,https://ofmpub.epa.gov/apex/cimcf?p=CIMC:MAP:::::P71_GEOSEARCH:34.8524 -82.41243,34.852253,-82.412186,census
1113 LADY STREET & 1306 ASSEMBLY STREET,1113 LADY STREET & 1306 ASSEMBLY STREET,COLUMBIA,SC,29201,RICHLAND,,"https://ofmpub.epa.gov/apex/cimc/f?p=100:31::::31,0:P31_ID:229362",,,,,https://ofmpub.epa.gov/apex/cimc/f?p=CIMC:REPOWER:::::P6_REFERENCE:33858,https://ofmpub.epa.gov/frs_public2/fii_query_detail.disp_program_facility?p_registry_id=110070117632,https://ofmpub.epa.gov/apex/cimcf?p=CIMC:MAP:::::P71_GEOSEARCH:34.00208 -81.03592,,,osm
116 NORTH CHURCH STREET PROPERTY,116 NORTH CHURCH STREET,LAKE CITY,SC,29560,FLORENCE,,"https://ofmpub.epa.gov/apex/cimc/f?p=100:31::::31,0:P31_ID:237321",,,,,https://ofmpub.epa.gov/apex/cimc/f?p=CIMC:REPOWER:::::P6_REFERENCE:,https://ofmpub.epa.gov/frs_public2/fii_query_detail.disp_program_facility?p_registry_id=110070261997,https://ofmpub.epa.gov/apex/cimcf?p=CIMC:MAP:::::P71_GEOSEARCH:33.872353 -79.75224,33.871773,-79.75262,census
116 SAULS STREET,116 SAULS STREET,LAKE CITY,SC,29560,FLORENCE,,"https://ofmpub.epa.gov/apex/cimc/f?p=100:31::::31,0:P31_ID:241569",,,,,https://ofmpub.epa.gov/apex/cimc/f?p=CIMC:REPOWER:::::P6_REFERENCE:,https://ofmpub.epa.gov/frs_public2/fii_query_detail.disp_program_facility?p_registry_id=110070790083,https://ofmpub.epa.gov/apex/cimcf?p=CIMC:MAP:::::P71_GEOSEARCH:33.873225 -79.75353,33.87345,-79.754265,census
118 SAULS STREET,118 SAULS STREET,LAKE CITY,SC,29560,FLORENCE,,"https://ofmpub.epa.gov/apex/cimc/f?p=100:31::::31,0:P31_ID:241568",,,,,https://ofmpub.epa.gov/apex/cimc/f?p=CIMC:REPOWER:::::P6_REFERENCE:,https://ofmpub.epa.gov/frs_public2/fii_query_detail.disp_program_facility?p_registry_id=110070790082,https://ofmpub.epa.gov/apex/cimcf?p=CIMC:MAP:::::P71_GEOSEARCH:33.873186 -79.753429,33.873447,-79.754265,census
119 GULF STREET,119 GULF STREET,EASLEY,SC,29641,,,"https://ofmpub.epa.gov/apex/cimc/f?p=100:31::::31,0:P31_ID:248389",,,,,,,https://ofmpub.epa.gov/apex/cimcf?p=CIMC:MAP:::::P71_GEOSEARCH:34.827433 -82.609355,34.82766,-82.60975,census
"1200, 1202, 1204 LAURENS RD","1200, 1202, 1204 LAURENS RD",GREENVILLE,SC,29607,GREENVILLE,,"https://ofmpub.epa.gov/apex/cimc/f?p=100:31::::31,0:P31_ID:241412",,,,,https://ofmpub.epa.gov/apex/cimc/f?p=CIMC:REPOWER:::::P6_REFERENCE:,https://ofmpub.epa.gov/frs_public2/fii_query_detail.disp_program_facility?p_registry_id=110070789916,https://ofmpub.epa.gov/apex/cimcf?p=CIMC:MAP:::::P71_GEOSEARCH:34.847095 -82.370106,,,osm
1209 FRANKLIN STREET,1209 FRANKLIN STREET,COLUMBIA,SC,29201,RICHLAND,,"https://ofmpub.epa.gov/apex/cimc/f?p=100:31::::31,0:P31_ID:229361",,,,,https://ofmpub.epa.gov/apex/cimc/f?p=CIMC:REPOWER:::::P6_REFERENCE:33857,https://ofmpub.epa.gov/frs_public2/fii_query_detail.disp_program_facility?p_registry_id=110070117656,https://ofmpub.epa.gov/apex/cimcf?p=CIMC:MAP:::::P71_GEOSEARCH:34.01691 -81.0399,34.01678,-81.04032,census
121 GULF STREET,121 GULF STREET,EASLEY,SC,29641,,,"https://ofmpub.epa.gov/apex/cimc/f?p=100:31::::31,0:P31_ID:248390",,,,,,,https://ofmpub.epa.gov/apex/cimcf?p=CIMC:MAP:::::P71_GEOSEARCH:34.826648 -82.609303,34.827644,-82.60974,census
121 S ACLINE STREET,121 S ACLINE STREET,LAKE CITY,SC,29560,FLORENCE,,"https://ofmpub.epa.gov/apex/cimc/f?p=100:31::::31,0:P31_ID:241575",,,,,https://ofmpub.epa.gov/apex/cimc/f?p=CIMC:REPOWER:::::P6_REFERENCE:,https://ofmpub.epa.gov/frs_public2/fii_query_detail.disp_program_facility?p_registry_id=110070790089,https://ofmpub.epa.gov/apex/cimcf?p=CIMC:MAP:::::P71_GEOSEARCH:33.87201 -79.75468,33.8659575,-79.7566741,osm
1211 PENDLETON ST SITE,1211 PENDLETON ST,GREENVILLE,SC,29611,,,"https://ofmpub.epa.gov/apex/cimc/f?p=100:31::::31,0:P31_ID:242133",,,,,,,https://ofmpub.epa.gov/apex/cimcf?p=CIMC:MAP:::::P71_GEOSEARCH:34.846701 -82.427586,34.846676,-82.4272,census
124 E MAIN STREET,124 E MAIN STREET,LAKE CITY,SC,29560,FLORENCE,,"https://ofmpub.epa.gov/apex/cimc/f?p=100:31::::31,0:P31_ID:241594",,,,,https://ofmpub.epa.gov/apex/cimc/f?p=CIMC:REPOWER:::::P6_REFERENCE:,https://ofmpub.epa.gov/frs_public2/fii_query_detail.disp_program_facility?p_registry_id=110070790099,https://ofmpub.epa.gov/apex/cimcf?p=CIMC:MAP:::::P71_GEOSEARCH:33.87218 -79.75369,34.3434175227273,-79.1659100909091,osm
127 E MAIN STREET,127 E MAIN STREET,LAKE CITY,SC,29560,FLORENCE,,"https://ofmpub.epa.gov/apex/cimc/f?p=100:31::::31,0:P31_ID:241578",,,,,https://ofmpub.epa.gov/apex/cimc/f?p=CIMC:REPOWER:::::P6_REFERENCE:,https://ofmpub.epa.gov/frs_public2/fii_query_detail.disp_program_facility?p_registry_id=110070790092,https://ofmpub.epa.gov/apex/cimcf?p=CIMC:MAP:::::P71_GEOSEARCH:33.872133 -79.753679,34.3435113265306,-79.1661021428572,osm
127 SAULS STREET,127 SAULS STREET,LAKE CITY,SC,29560,FLORENCE,,"https://ofmpub.epa.gov/apex/cimc/f?p=100:31::::31,0:P31_ID:241591",,,,,https://ofmpub.epa.gov/apex/cimc/f?p=CIMC:REPOWER:::::P6_REFERENCE:,https://ofmpub.epa.gov/frs_public2/fii_query_detail.disp_program_facility?p_registry_id=110070790096,https://ofmpub.epa.gov/apex/cimcf?p=CIMC:MAP:::::P71_GEOSEARCH:33.873045 -79.753206,33.873413,-79.75425,census
128 BILTMORE DRIVE PROPERTY,128 BILTMORE DRIVE,GREENVILLE,SC,29601,GREENVILLE,,"https://ofmpub.epa.gov/apex/cimc/f?p=100:31::::31,0:P31_ID:148522",,,,,https://ofmpub.epa.gov/apex/cimc/f?p=CIMC:REPOWER:::::P6_REFERENCE:32830,https://ofmpub.epa.gov/frs_public2/fii_query_detail.disp_program_facility?p_registry_id=110054365520,https://ofmpub.epa.gov/apex/cimcf?p=CIMC:MAP:::::P71_GEOSEARCH:34.834811 -82.397991,34.834785,-82.39799,census
131 SAULS STREET,131 SAULS STREET,LAKE CITY,SC,29560,FLORENCE,,"https://ofmpub.epa.gov/apex/cimc/f?p=100:31::::31,0:P31_ID:241590",,,,,https://ofmpub.epa.gov/apex/cimc/f?p=CIMC:REPOWER:::::P6_REFERENCE:,https://ofmpub.epa.gov/frs_public2/fii_query_detail.disp_program_facility?p_registry_id=110070790095,https://ofmpub.epa.gov/apex/cimcf?p=CIMC:MAP:::::P71_GEOSEARCH:33.873005 -79.7531,33.8734,-79.75424,census
133A E MAIN STREET,133A E MAIN STREET,LAKE CITY,SC,29560,FLORENCE,,"https://ofmpub.epa.gov/apex/cimc/f?p=100:31::::31,0:P31_ID:241576",,,,,https://ofmpub.epa.gov/apex/cimc/f?p=CIMC:REPOWER:::::P6_REFERENCE:,https://ofmpub.epa.gov/frs_public2/fii_query_detail.disp_program_facility?p_registry_id=110070790090,https://ofmpub.epa.gov/apex/cimcf?p=CIMC:MAP:::::P71_GEOSEARCH:33.871967 -79.753531,33.872437,-79.754036,census
134 E MAIN STREET,134 E MAIN STREET,LAKE CITY,SC,29560,FLORENCE,,"https://ofmpub.epa.gov/apex/cimc/f?p=100:31::::31,0:P31_ID:241573",,,,,https://ofmpub.epa.gov/apex/cimc/f?p=CIMC:REPOWER:::::P6_REFERENCE:,https://ofmpub.epa.gov/frs_public2/fii_query_detail.disp_program_facility?p_registry_id=110070790087,https://ofmpub.epa.gov/apex/cimcf?p=CIMC:MAP:::::P71_GEOSEARCH:33.872053 -79.753487,34.3435071818182,-79.1659037272727,osm
136 CASH ROAD,136 CASH ROAD,CHERAW,SC,29520,CHESTERFIELD,,"https://ofmpub.epa.gov/apex/cimc/f?p=100:31::::31,0:P31_ID:235298",,,,,https://ofmpub.epa.gov/apex/cimc/f?p=CIMC:REPOWER:::::P6_REFERENCE:33964,https://ofmpub.epa.gov/frs_public2/fii_query_detail.disp_program_facility?p_registry_id=110070164267,https://ofmpub.epa.gov/apex/cimcf?p=CIMC:MAP:::::P71_GEOSEARCH:34.6865 -79.882148,34.686504,-79.88209,census
137 S MCALISTER STREET,137 S MCALISTER STREET,LAKE CITY,SC,29560,FLORENCE,,"https://ofmpub.epa.gov/apex/cimc/f?p=100:31::::31,0:P31_ID:241593",,,,,https://ofmpub.epa.gov/apex/cimc/f?p=CIMC:REPOWER:::::P6_REFERENCE:,https://ofmpub.epa.gov/frs_public2/fii_query_detail.disp_program_facility?p_registry_id=110070790098,https://ofmpub.epa.gov/apex/cimcf?p=CIMC:MAP:::::P71_GEOSEARCH:33.87337 -79.75722,33.874313,-79.75607,census
138 E MAIN STREET,138 E MAIN STREET,LAKE CITY,SC,29560,FLORENCE,,"https://ofmpub.epa.gov/apex/cimc/f?p=100:31::::31,0:P31_ID:241572",,,,,https://ofmpub.epa.gov/apex/cimc/f?p=CIMC:REPOWER:::::P6_REFERENCE:,https://ofmpub.epa.gov/frs_public2/fii_query_detail.disp_program_facility?p_registry_id=110070790086,https://ofmpub.epa.gov/apex/cimcf?p=CIMC:MAP:::::P71_GEOSEARCH:33.872442 -79.754036,33.8720331882888,-79.7533409669131,osm
139 SAULS STREET,139 SAULS STREET,LAKE CITY,SC,29560,FLORENCE,,"https://ofmpub.epa.gov/apex/cimc/f?p=100:31::::31,0:P31_ID:241567",,,,,https://ofmpub.epa.gov/apex/cimc/f?p=CIMC:REPOWER:::::P6_REFERENCE:,https://ofmpub.epa.gov/frs_public2/fii_query_detail.disp_program_facility?p_registry_id=110070790081,https://ofmpub.epa.gov/apex/cimcf?p=CIMC:MAP:::::P71_GEOSEARCH:33.873131 -79.753351,33.873383,-79.75422,census
139 WEST MAIN STREET PROPERTY,139 WEST MAIN STREET,PICKENS,SC,29671,PICKENS,,"https://ofmpub.epa.gov/apex/cimc/f?p=100:31::::31,0:P31_ID:242464",,,,,https://ofmpub.epa.gov/apex/cimc/f?p=CIMC:REPOWER:::::P6_REFERENCE:,https://ofmpub.epa.gov/frs_public2/fii_query_detail.disp_program_facility?p_registry_id=110070790040,https://ofmpub.epa.gov/apex/cimcf?p=CIMC:MAP:::::P71_GEOSEARCH:34.88296 -82.71017,34.883553,-82.70823,census
145 SAULS STREET,145 SAULS STREET,LAKE CITY,SC,29560,FLORENCE,,"https://ofmpub.epa.gov/apex/cimc/f?p=100:31::::31,0:P31_ID:241574",,,,,https://ofmpub.epa.gov/apex/cimc/f?p=CIMC:REPOWER:::::P6_REFERENCE:,https://ofmpub.epa.gov/frs_public2/fii_query_detail.disp_program_facility?p_registry_id=110070790088,https://ofmpub.epa.gov/apex/cimcf?p=CIMC:MAP:::::P71_GEOSEARCH:33.872809 -79.752552,33.873272,-79.75391,census
148 E MAIN STREET,148 E MAIN STREET,LAKE CITY,SC,29560,FLORENCE,,"https://ofmpub.epa.gov/apex/cimc/f?p=100:31::::31,0:P31_ID:241571",,,,,https://ofmpub.epa.gov/apex/cimc/f?p=CIMC:REPOWER:::::P6_REFERENCE:,https://ofmpub.epa.gov/frs_public2/fii_query_detail.disp_program_facility?p_registry_id=110070790085,https://ofmpub.epa.gov/apex/cimcf?p=CIMC:MAP:::::P71_GEOSEARCH:33.871747 -79.753087,34.3436327045455,-79.1658948181818,osm
152 E MAIN STREET,152 E MAIN STREET,LAKE CITY,SC,29560,FLORENCE,,"https://ofmpub.epa.gov/apex/cimc/f?p=100:31::::31,0:P31_ID:241570",,,,,https://ofmpub.epa.gov/apex/cimc/f?p=CIMC:REPOWER:::::P6_REFERENCE:,https://ofmpub.epa.gov/frs_public2/fii_query_detail.disp_program_facility?p_registry_id=110070790084,https://ofmpub.epa.gov/apex/cimcf?p=CIMC:MAP:::::P71_GEOSEARCH:33.87182 -79.75323,33.8721700237892,-79.7535227950784,osm
1527 CHARLESTON HIGHWAY PROPERTY,1527 CHARLESTON HIGHWAY,WEST COLUMBIA,SC,29033,LEXINGTON,,"https://ofmpub.epa.gov/apex/cimc/f?p=100:31::::31,0:P31_ID:114181",,,,,https://ofmpub.epa.gov/apex/cimc/f?p=CIMC:REPOWER:::::P6_REFERENCE:32095,https://ofmpub.epa.gov/frs_public2/fii_query_detail.disp_program_facility?p_registry_id=110041720251,https://ofmpub.epa.gov/apex/cimcf?p=CIMC:MAP:::::P71_GEOSEARCH:33.97226 -81.07696,33.9723599387755,-81.0768792040816,osm
1527 GERVAIS STREET,1527 GERVAIS STREET,COLUMBIA,SC,29201,RICHLAND,,"https://ofmpub.epa.gov/apex/cimc/f?p=100:31::::31,0:P31_ID:140781",,,,,https://ofmpub.epa.gov/apex/cimc/f?p=CIMC:REPOWER:::::P6_REFERENCE:32620,https://ofmpub.epa.gov/frs_public2/fii_query_detail.disp_program_facility?p_registry_id=110045401089,https://ofmpub.epa.gov/apex/cimcf?p=CIMC:MAP:::::P71_GEOSEARCH:34.00319 -81.02757,34.00293,-81.02824,census
159 WELBORN STREET,159 WELBORN STREET,GREENVILLE,SC,29601,GREENVILLE,,"https://ofmpub.epa.gov/apex/cimc/f?p=100:31::::31,0:P31_ID:67721",,,,,https://ofmpub.epa.gov/apex/cimc/f?p=CIMC:REPOWER:::::P6_REFERENCE:30875,https://ofmpub.epa.gov/frs_public2/fii_query_detail.disp_program_facility?p_registry_id=110038718457,https://ofmpub.epa.gov/apex/cimcf?p=CIMC:MAP:::::P71_GEOSEARCH:34.85336 -82.41377,34.853157,-82.413445,census
1766 MEETING STREET,1766 MEETING STREET,CHARLESTON,SC,29403,CHARLESTON,,"https://ofmpub.epa.gov/apex/cimc/f?p=100:31::::31,0:P31_ID:11849",,,,,https://ofmpub.epa.gov/apex/cimc/f?p=CIMC:REPOWER:::::P6_REFERENCE:30098,https://ofmpub.epa.gov/frs_public2/fii_query_detail.disp_program_facility?p_registry_id=110039536721,https://ofmpub.epa.gov/apex/cimcf?p=CIMC:MAP:::::P71_GEOSEARCH:32.82609 -79.951754,32.7974923,-79.9413671,osm
1797 KING STREET EXTENSION,1797 KING STREET,CHARLESTON,SC,29403,CHARLESTON,,"https://ofmpub.epa.gov/apex/cimc/f?p=100:31::::31,0:P31_ID:11850",,,,,https://ofmpub.epa.gov/apex/cimc/f?p=CIMC:REPOWER:::::P6_REFERENCE:30099,https://ofmpub.epa.gov/frs_public2/fii_query_detail.disp_program_facility?p_registry_id=110039536767,https://ofmpub.epa.gov/apex/cimcf?p=CIMC:MAP:::::P71_GEOSEARCH:32.81445 -79.95123,32.8239365271318,-79.9527290620155,osm
1801 GERVAIS STREET PROPERTY,1801 GERVAIS STREET,COLUMBIA,SC,29201,RICHLAND,,"https://ofmpub.epa.gov/apex/cimc/f?p=100:31::::31,0:P31_ID:132949",,,,,https://ofmpub.epa.gov/apex/cimc/f?p=CIMC:REPOWER:::::P6_REFERENCE:32442,https://ofmpub.epa.gov/frs_public2/fii_query_detail.disp_program_facility?p_registry_id=110045012936,https://ofmpub.epa.gov/apex/cimcf?p=CIMC:MAP:::::P71_GEOSEARCH:34.00442 -81.02363,34.004322,-81.02381,census
1901 REYNOLDS PROPERTY,1901 REYNOLDS AVENUE,NORTH CHARLESTON,SC,29405,CHARLESTON,,"https://ofmpub.epa.gov/apex/cimc/f?p=100:31::::31,0:P31_ID:137561",,,,,https://ofmpub.epa.gov/apex/cimc/f?p=CIMC:REPOWER:::::P6_REFERENCE:32572,https://ofmpub.epa.gov/frs_public2/fii_query_detail.disp_program_facility?p_registry_id=110045013098,https://ofmpub.epa.gov/apex/cimcf?p=CIMC:MAP:::::P71_GEOSEARCH:32.85728 -79.97069,32.85661,-79.97122,census
20 CHESTERFIELD HIGHWAY,20 CHESTERFIELD HIGHWAY,CHERAW,SC,29520,CHESTERFIELD,,"https://ofmpub.epa.gov/apex/cimc/f?p=100:31::::31,0:P31_ID:231841",,,,,https://ofmpub.epa.gov/apex/cimc/f?p=CIMC:REPOWER:::::P6_REFERENCE:33886,https://ofmpub.epa.gov/frs_public2/fii_query_detail.disp_program_facility?p_registry_id=110070164203,https://ofmpub.epa.gov/apex/cimcf?p=CIMC:MAP:::::P71_GEOSEARCH:34.689919 -79.898359,34.689934,-79.89819,census
202 KELLEY STREET,202 KELLEY STREET,LAKE CITY,SC,29560,FLORENCE,,"https://ofmpub.epa.gov/apex/cimc/f?p=100:31::::31,0:P31_ID:241596",,,,,https://ofmpub.epa.gov/apex/cimc/f?p=CIMC:REPOWER:::::P6_REFERENCE:,https://ofmpub.epa.gov/frs_public2/fii_query_detail.disp_program_facility?p_registry_id=110070790101,https://ofmpub.epa.gov/apex/cimcf?p=CIMC:MAP:::::P71_GEOSEARCH:33.87681 -79.75368,33.877018,-79.75455,census
206 SCARLETT ST.,206 SCARLETT ST.,GREENVILLE,SC,29607,GREENVILLE COUNTY,,"https://ofmpub.epa.gov/apex/cimc/f?p=100:31::::31,0:P31_ID:206784",,,,,https://ofmpub.epa.gov/apex/cimc/f?p=CIMC:REPOWER:::::P6_REFERENCE:,https://ofmpub.epa.gov/frs_public2/fii_query_detail.disp_program_facility?p_registry_id=110070247862,https://ofmpub.epa.gov/apex/cimcf?p=CIMC:MAP:::::P71_GEOSEARCH:34.82866 -82.36865,34.82879,-82.368706,census
207 JOHN STREET,207 JOHN STREET,LAKE CITY,SC,29560,FLORENCE,,"https://ofmpub.epa.gov/apex/cimc/f?p=100:31::::31,0:P31_ID:241592",,,,,https://ofmpub.epa.gov/apex/cimc/f?p=CIMC:REPOWER:::::P6_REFERENCE:,https://ofmpub.epa.gov/frs_public2/fii_query_detail.disp_program_facility?p_registry_id=110070790097,https://ofmpub.epa.gov/apex/cimcf?p=CIMC:MAP:::::P71_GEOSEARCH:33.873836 -79.757271,33.873886,-79.75728,census
209_217 LAURENS RD,209 & 217 LAURENS ROAD,GREENVILLE,SC,29607,GREENVILLE COUNTY,,"https://ofmpub.epa.gov/apex/cimc/f?p=100:31::::31,0:P31_ID:148201",,,,,https://ofmpub.epa.gov/apex/cimc/f?p=CIMC:REPOWER:::::P6_REFERENCE:32811,https://ofmpub.epa.gov/frs_public2/fii_query_detail.disp_program_facility?p_registry_id=110054365496,https://ofmpub.epa.gov/apex/cimcf?p=CIMC:MAP:::::P71_GEOSEARCH:34.851369 -82.378655,34.8317359,-82.3488174,osm
21 3RD ST PROPERTY,21 3RD ST,GREENVILLE,SC,29611,GREENVILLE,,"https://ofmpub.epa.gov/apex/cimc/f?p=100:31::::31,0:P31_ID:239342",,,,,https://ofmpub.epa.gov/apex/cimc/f?p=CIMC:REPOWER:::::P6_REFERENCE:,https://ofmpub.epa.gov/frs_public2/fii_query_detail.disp_program_facility?p_registry_id=110070789512,https://ofmpub.epa.gov/apex/cimcf?p=CIMC:MAP:::::P71_GEOSEARCH:34.85124 -82.4292,34.851486,-82.428986,census
215 HAMPTON STREET,215 HAMPTON STREET,ROCK HILL,SC,29730,,,"https://ofmpub.epa.gov/apex/cimc/f?p=100:31::::31,0:P31_ID:242878",,,,,,,https://ofmpub.epa.gov/apex/cimcf?p=CIMC:MAP:::::P71_GEOSEARCH:34.92351 -81.027045,34.92407,-81.02745,census
219 HAMPTON STREET,219 HAMPTON STREET,ROCK HILL,SC,29730,,,"https://ofmpub.epa.gov/apex/cimc/f?p=100:31::::31,0:P31_ID:242877",,,,,,,https://ofmpub.epa.gov/apex/cimcf?p=CIMC:MAP:::::P71_GEOSEARCH:34.923733 -81.027722,34.924023,-81.0275,census
2222 MAIN STREET,2222 MAIN STREET,COLUMBIA,SC,29201,RICHLAND COUNTY,,"https://ofmpub.epa.gov/apex/cimc/f?p=100:31::::31,0:P31_ID:217661",,,,,https://ofmpub.epa.gov/apex/cimc/f?p=CIMC:REPOWER:::::P6_REFERENCE:,https://ofmpub.epa.gov/frs_public2/fii_query_detail.disp_program_facility?p_registry_id=110070247875,https://ofmpub.epa.gov/apex/cimcf?p=CIMC:MAP:::::P71_GEOSEARCH:34.014845 -81.039575,34.014896,-81.03959,census
"2428,-2434 MAIN STREET AND 1204 CONFEDERATE AVE","2428, 2430, AND 2434 MAIN STREET, AND 1204",COLUMBIA,SC,29201,RICHLAND COUNTY,,"https://ofmpub.epa.gov/apex/cimc/f?p=100:31::::31,0:P31_ID:184521",,,,,https://ofmpub.epa.gov/apex/cimc/f?p=CIMC:REPOWER:::::P6_REFERENCE:,https://ofmpub.epa.gov/frs_public2/fii_query_detail.disp_program_facility?p_registry_id=110070247854,https://ofmpub.epa.gov/apex/cimcf?p=CIMC:MAP:::::P71_GEOSEARCH:34.018616 -81.040968,,,osm
2510 NORTH MAIN STREET,2510 NORTH MAIN STREET,COLUMBIA,SC,29201,RICHLAND,,"https://ofmpub.epa.gov/apex/cimc/f?p=100:31::::31,0:P31_ID:116341",,,,,https://ofmpub.epa.gov/apex/cimc/f?p=CIMC:REPOWER:::::P6_REFERENCE:32108,https://ofmpub.epa.gov/frs_public2/fii_query_detail.disp_program_facility?p_registry_id=110041720359,https://ofmpub.epa.gov/apex/cimcf?p=CIMC:MAP:::::P71_GEOSEARCH:34.018982 -81.041442,34.019928,-81.04181,census
2547 DECKER BOULEVARD FORMER OLIVE GARDEN,2547 DECKER BOULEVARD,COLUMBIA,SC,29206,RICHLAND,,"https://ofmpub.epa.gov/apex/cimc/f?p=100:31::::31,0:P31_ID:122904",,,,,https://ofmpub.epa.gov/apex/cimc/f?p=CIMC:REPOWER:::::P6_REFERENCE:32206,https://ofmpub.epa.gov/frs_public2/fii_query_detail.disp_program_facility?p_registry_id=110043083230,https://ofmpub.epa.gov/apex/cimcf?p=CIMC:MAP:::::P71_GEOSEARCH:34.05926 -80.95094,34.05987,-80.95125,census
2628 DECKER BOULEVARD,2628 DECKER BOULEVARD,COLUMBIA,SC,29223,RICHLAND,,"https://ofmpub.epa.gov/apex/cimc/f?p=100:31::::31,0:P31_ID:126102",,,,,https://ofmpub.epa.gov/apex/cimc/f?p=CIMC:REPOWER:::::P6_REFERENCE:32343,https://ofmpub.epa.gov/frs_public2/fii_query_detail.disp_program_facility?p_registry_id=110043425567,https://ofmpub.epa.gov/apex/cimcf?p=CIMC:MAP:::::P71_GEOSEARCH:34.06059 -80.95182,34.056816,-80.94943,census
2701 DECKER BOULEVARD FORMER RED LOBSTER,2701 DECKER BOULEVARD,COLUMBIA,SC,29206,RICHLAND,,"https://ofmpub.epa.gov/apex/cimc/f?p=100:31::::31,0:P31_ID:122901",,,,,https://ofmpub.epa.gov/apex/cimc/f?p=CIMC:REPOWER:::::P6_REFERENCE:32204,https://ofmpub.epa.gov/frs_public2/fii_query_detail.disp_program_facility?p_registry_id=110043083212,https://ofmpub.epa.gov/apex/cimcf?p=CIMC:MAP:::::P71_GEOSEARCH:34.061792 -80.953117,34.06268,-80.954216,census
2701 DECKER BOULEVARD FORMER RED LOBSTER,2701 DECKER BOULEVARD,COLUMBIA,SC,29206,RICHLAND,,"https://ofmpub.epa.gov/apex/cimc/f?p=100:31::::31,0:P31_ID:122903",,,,,https://ofmpub.epa.gov/apex/cimc/f?p=CIMC:REPOWER:::::P6_REFERENCE:32205,https://ofmpub.epa.gov/frs_public2/fii_query_detail.disp_program_facility?p_registry_id=110043083212,https://ofmpub.epa.gov/apex/cimcf?p=CIMC:MAP:::::P71_GEOSEARCH:34.061792 -80.953117,34.06268,-80.954216,census
312 2ND AVENUE AND 301 5TH STREET,312 2ND AVENUE,EASLEY,SC,29641,,,"https://ofmpub.epa.gov/apex/cimc/f?p=100:31::::31,0:P31_ID:248391",,,,,,,https://ofmpub.epa.gov/apex/cimcf?p=CIMC:MAP:::::P71_GEOSEARCH:34.826296 -82.60891,34.8259997138722,-82.6094424680616,osm
312 N IRBY STREET,312 N IRBY STREET,FLORENCE,SC,29501,FLORENCE,,"https://ofmpub.epa.gov/apex/cimc/f?p=100:31::::31,0:P31_ID:111096",,,,,https://ofmpub.epa.gov/apex/cimc/f?p=CIMC:REPOWER:::::P6_REFERENCE:32010,https://ofmpub.epa.gov/frs_public2/fii_query_detail.disp_program_facility?p_registry_id=110040821439,https://ofmpub.epa.gov/apex/cimcf?p=CIMC:MAP:::::P71_GEOSEARCH:34.200734 -79.768427,34.2008869444445,-79.7685468888889,osm
320 SOUTH HUDSON STREET,320 SOUTH HUDSON STREET,GREENVILLE,SC,29601,GREENVILLE,,"https://ofmpub.epa.gov/apex/cimc/f?p=100:31::::31,0:P31_ID:146581",,,,,https://ofmpub.epa.gov/apex/cimc/f?p=CIMC:REPOWER:::::P6_REFERENCE:32742,https://ofmpub.epa.gov/frs_public2/fii_query_detail.disp_program_facility?p_registry_id=110054365218,https://ofmpub.epa.gov/apex/cimcf?p=CIMC:MAP:::::P71_GEOSEARCH:34.85044 -82.4097,34.84994,-82.41004,census
322 MEADOW ST.,322 MEADOW ST.,GREENVILLE,SC,29601,GREENVILLE COUNTY,,"https://ofmpub.epa.gov/apex/cimc/f?p=100:31::::31,0:P31_ID:199181",,,,,https://ofmpub.epa.gov/apex/cimc/f?p=CIMC:REPOWER:::::P6_REFERENCE:,https://ofmpub.epa.gov/frs_public2/fii_query_detail.disp_program_facility?p_registry_id=110070247851,https://ofmpub.epa.gov/apex/cimcf?p=CIMC:MAP:::::P71_GEOSEARCH:34.85457 -82.41242,34.854275,-82.41189,census
331 SOUTH HUDSON STREET,331 SOUTH HUDSON STREET,GREENVILLE,SC,29602,GREENVILLE,,"https://ofmpub.epa.gov/apex/cimc/f?p=100:31::::31,0:P31_ID:62001",,,,,https://ofmpub.epa.gov/apex/cimc/f?p=CIMC:REPOWER:::::P6_REFERENCE:30851,https://ofmpub.epa.gov/frs_public2/fii_query_detail.disp_program_facility?p_registry_id=110038716413,https://ofmpub.epa.gov/apex/cimcf?p=CIMC:MAP:::::P71_GEOSEARCH:34.84965 -82.41022,34.8504526190476,-82.4095798095238,osm
342 S RON MCNAIR BLVD,342 S RON MCNAIR BLVD,LAKE CITY,SC,29560,FLORENCE,,"https://ofmpub.epa.gov/apex/cimc/f?p=100:31::::31,0:P31_ID:241579",,,,,https://ofmpub.epa.gov/apex/cimc/f?p=CIMC:REPOWER:::::P6_REFERENCE:,https://ofmpub.epa.gov/frs_public2/fii_query_detail.disp_program_facility?p_registry_id=110070790093,https://ofmpub.epa.gov/apex/cimcf?p=CIMC:MAP:::::P71_GEOSEARCH:33.865216 -79.762685,33.8709,-79.76156,census
3RD STREET WAREHOUSE MULTI-PARCEL,1300-1523 HORNER BLVD.,SANFORD,SC,27330,LEE,,"https://ofmpub.epa.gov/apex/cimc/f?p=100:31::::31,0:P31_ID:111086",,,,,https://ofmpub.epa.gov/apex/cimc/f?p=CIMC:REPOWER:::::P6_REFERENCE:,https://ofmpub.epa.gov/frs_public2/fii_query_detail.disp_program_facility?p_registry_id=110045012525,https://ofmpub.epa.gov/apex/cimcf?p=CIMC:MAP:::::P71_GEOSEARCH:35.4689 -79.16448,,,osm
40 RUTHERFORD STREET,40 RUTHERFORD STREET,GREENVILLE,SC,29602,GREENVILLE,,"https://ofmpub.epa.gov/apex/cimc/f?p=100:31::::31,0:P31_ID:62002",,,,,https://ofmpub.epa.gov/apex/cimc/f?p=CIMC:REPOWER:::::P6_REFERENCE:30852,https://ofmpub.epa.gov/frs_public2/fii_query_detail.disp_program_facility?p_registry_id=110038717065,https://ofmpub.epa.gov/apex/cimcf?p=CIMC:MAP:::::P71_GEOSEARCH:34.8596 -82.4046,34.85948,-82.404526,census
4000 RIVER DRIVE,4000 RIVER DRIVE,COLUMBIA,SC,29203,RICHLAND,,"https://ofmpub.epa.gov/apex/cimc/f?p=100:31::::31,0:P31_ID:126423",,,,,https://ofmpub.epa.gov/apex/cimc/f?p=CIMC:REPOWER:::::P6_REFERENCE:32351,https://ofmpub.epa.gov/frs_public2/fii_query_detail.disp_program_facility?p_registry_id=110043637552,https://ofmpub.epa.gov/apex/cimcf?p=CIMC:MAP:::::P71_GEOSEARCH:34.02816 -81.06067,34.027247,-81.062936,osm
410 W MAIN STREET,410 W MAIN STREET,LAKE CITY,SC,29560,FLORENCE,,"https://ofmpub.epa.gov/apex/cimc/f?p=100:31::::31,0:P31_ID:241577",,,,,https://ofmpub.epa.gov/apex/cimc/f?p=CIMC:REPOWER:::::P6_REFERENCE:,https://ofmpub.epa.gov/frs_public2/fii_query_detail.disp_program_facility?p_registry_id=110070790091,https://ofmpub.epa.gov/apex/cimcf?p=CIMC:MAP:::::P71_GEOSEARCH:33.878203 -79.768503,33.878304773697,-79.7687145314843,osm
4525 KING KENNEDY STREET,4525 KING KENNEDY STREET,CARLISLE,SC,29031,UNION,,"https://ofmpub.epa.gov/apex/cimc/f?p=100:31::::31,0:P31_ID:208141",,,,,https://ofmpub.epa.gov/apex/cimc/f?p=CIMC:REPOWER:::::P6_REFERENCE:33606,https://ofmpub.epa.gov/frs_public2/fii_query_detail.disp_program_facility?p_registry_id=110067367174,https://ofmpub.epa.gov/apex/cimcf?p=CIMC:MAP:::::P71_GEOSEARCH:34.59274 -81.46793,34.593388,-81.46853,census
46 LOIS AVENUE,46 LOIS AVENUE,GREENVILLE,SC,29611,GREENVILLE COUNTY,,"https://ofmpub.epa.gov/apex/cimc/f?p=100:31::::31,0:P31_ID:223621",,,,,https://ofmpub.epa.gov/apex/cimc/f?p=CIMC:REPOWER:::::P6_REFERENCE:,https://ofmpub.epa.gov/frs_public2/fii_query_detail.disp_program_facility?p_registry_id=110070247613,https://ofmpub.epa.gov/apex/cimcf?p=CIMC:MAP:::::P71_GEOSEARCH:34.84887 -82.43076,34.84872,-82.43068,census
4821 VIRGINIA PROPERTY,4821 VIRGINIA AVENUE,NORTH CHARLESTON,SC,29405,CHARLESTON,,"https://ofmpub.epa.gov/apex/cimc/f?p=100:31::::31,0:P31_ID:166702",,,,,https://ofmpub.epa.gov/apex/cimc/f?p=CIMC:REPOWER:::::P6_REFERENCE:33100,https://ofmpub.epa.gov/frs_public2/fii_query_detail.disp_program_facility?p_registry_id=110056364713,https://ofmpub.epa.gov/apex/cimcf?p=CIMC:MAP:::::P71_GEOSEARCH:32.88217 -79.97405,32.882175,-79.97416,census
500 VANBOKLEN STREET,500 VANBOKLEN STREET,EASTOVER,SC,29044,RICHLAND,,"https://ofmpub.epa.gov/apex/cimc/f?p=100:31::::31,0:P31_ID:130182",,,,,https://ofmpub.epa.gov/apex/cimc/f?p=CIMC:REPOWER:::::P6_REFERENCE:32395,https://ofmpub.epa.gov/frs_public2/fii_query_detail.disp_program_facility?p_registry_id=110043637749,https://ofmpub.epa.gov/apex/cimcf?p=CIMC:MAP:::::P71_GEOSEARCH:33.8826 -80.68791,33.8833694,-80.687507,osm
502 JENKINS STREET,502 JENKINS STREET,GREENVILLE,SC,29602,GREENVILLE,,"https://ofmpub.epa.gov/apex/cimc/f?p=100:31::::31,0:P31_ID:235312",,,,,https://ofmpub.epa.gov/apex/cimc/f?p=CIMC:REPOWER:::::P6_REFERENCE:,https://ofmpub.epa.gov/frs_public2/fii_query_detail.disp_program_facility?p_registry_id=110070247628,https://ofmpub.epa.gov/apex/cimcf?p=CIMC:MAP:::::P71_GEOSEARCH:34.83739 -82.41525,34.837357,-82.41461,census
5041 DURANT AVENUE,5041 DURANT AVENUE,NORTH CHARLESTON,SC,29405,CHARLESTON,,"https://ofmpub.epa.gov/apex/cimc/f?p=100:31::::31,0:P31_ID:177201",,,,,https://ofmpub.epa.gov/apex/cimc/f?p=CIMC:REPOWER:::::P6_REFERENCE:33353,https://ofmpub.epa.gov/frs_public2/fii_query_detail.disp_program_facility?p_registry_id=110063009275,https://ofmpub.epa.gov/apex/cimcf?p=CIMC:MAP:::::P71_GEOSEARCH:32.88725 -79.97853,32.88728,-79.97849,census
5112 JULIUS DIXON LANE,5112 JULIUS DIXON LANE,COLUMBIA,SC,29203,RICHLAND,,"https://ofmpub.epa.gov/apex/cimc/f?p=100:31::::31,0:P31_ID:98761",,,,,https://ofmpub.epa.gov/apex/cimc/f?p=CIMC:REPOWER:::::P6_REFERENCE:31827,https://ofmpub.epa.gov/frs_public2/fii_query_detail.disp_program_facility?p_registry_id=110039059032,https://ofmpub.epa.gov/apex/cimcf?p=CIMC:MAP:::::P71_GEOSEARCH:34.052426 -81.039297,34.051903,-81.03937,census
538 HIGHWAY 1,538 HIGHWAY 1,CHERAW,SC,29520,CHESTERFIELD,,"https://ofmpub.epa.gov/apex/cimc/f?p=100:31::::31,0:P31_ID:235292",,,,,https://ofmpub.epa.gov/apex/cimc/f?p=CIMC:REPOWER:::::P6_REFERENCE:,https://ofmpub.epa.gov/frs_public2/fii_query_detail.disp_program_facility?p_registry_id=110070164264,https://ofmpub.epa.gov/apex/cimcf?p=CIMC:MAP:::::P71_GEOSEARCH:34.680536 -79.900411,34.686348,-79.897964,census
556 PERRY AVENUE,556 PERRY AVENUE,GREENVILLE,SC,29611,GREENVILLE COUNTY,,"https://ofmpub.epa.gov/apex/cimc/f?p=100:31::::31,0:P31_ID:223601",,,,,https://ofmpub.epa.gov/apex/cimc/f?p=CIMC:REPOWER:::::P6_REFERENCE:,https://ofmpub.epa.gov/frs_public2/fii_query_detail.disp_program_facility?p_registry_id=110070247612,https://ofmpub.epa.gov/apex/cimcf?p=CIMC:MAP:::::P71_GEOSEARCH:34.84814 -82.42801,34.848106,-82.42789,census
601 CATAWBA STREET SITE,601 CATAWBA ST.,COLUMBIA,SC,29201,RICHLAND,,"https://ofmpub.epa.gov/apex/cimc/f?p=100:31::::31,0:P31_ID:111156",,,,,https://ofmpub.epa.gov/apex/cimc/f?p=CIMC:REPOWER:::::P6_REFERENCE:32030,https://ofmpub.epa.gov/frs_public2/fii_query_detail.disp_program_facility?p_registry_id=110040823124,https://ofmpub.epa.gov/apex/cimcf?p=CIMC:MAP:::::P71_GEOSEARCH:33.986392 -81.036903,33.986336,-81.0371,census
601 CATAWBA STREET SITE,601 CATAWBA ST.,COLUMBIA,SC,29201,RICHLAND,,"https://ofmpub.epa.gov/apex/cimc/f?p=100:31::::31,0:P31_ID:229364",,,,,https://ofmpub.epa.gov/apex/cimc/f?p=CIMC:REPOWER:::::P6_REFERENCE:,https://ofmpub.epa.gov/frs_public2/fii_query_detail.disp_program_facility?p_registry_id=110040823124,https://ofmpub.epa.gov/apex/cimcf?p=CIMC:MAP:::::P71_GEOSEARCH:33.986392 -81.036903,33.986336,-81.0371,census
622/624 GREEN AVENUE,622/624 GREEN AVENUE,GREENVILLE,SC,29601,GREENVILLE,,"https://ofmpub.epa.gov/apex/cimc/f?p=100:31::::31,0:P31_ID:111173",,,,,https://ofmpub.epa.gov/apex/cimc/f?p=CIMC:REPOWER:::::P6_REFERENCE:32037,https://ofmpub.epa.gov/frs_public2/fii_query_detail.disp_program_facility?p_registry_id=110042301595,https://ofmpub.epa.gov/apex/cimcf?p=CIMC:MAP:::::P71_GEOSEARCH:34.835453 -82.413339,34.836044,-82.41291,census
700 EAST STONE AVENUE,700 EAST STONE AVENUE,GREENVILLE,SC,29601,GREENVILLE,,"https://ofmpub.epa.gov/apex/cimc/f?p=100:31::::31,0:P31_ID:14782",,,,,https://ofmpub.epa.gov/apex/cimc/f?p=CIMC:REPOWER:::::P6_REFERENCE:30424,https://ofmpub.epa.gov/frs_public2/fii_query_detail.disp_program_facility?p_registry_id=110061025215,https://ofmpub.epa.gov/apex/cimcf?p=CIMC:MAP:::::P71_GEOSEARCH:34.857363 -82.385164,34.85802,-82.38508,census
700/706 GREEN AVENUE,700/706 GREEN AVENUE,GREENVILLE,SC,29601,GREENVILLE,,"https://ofmpub.epa.gov/apex/cimc/f?p=100:31::::31,0:P31_ID:14773",,,,,https://ofmpub.epa.gov/apex/cimc/f?p=CIMC:REPOWER:::::P6_REFERENCE:30415,https://ofmpub.epa.gov/frs_public2/fii_query_detail.disp_program_facility?p_registry_id=110039546792,https://ofmpub.epa.gov/apex/cimcf?p=CIMC:MAP:::::P71_GEOSEARCH:34.835735 -82.413332,34.832977,-82.414925,census
711 W. WASHINGTON ST.,711 W. WASHINGTON ST.,GREENVILLE,SC,29611,GREENVILLE COUNTY,,"https://ofmpub.epa.gov/apex/cimc/f?p=100:31::::31,0:P31_ID:223581",,,,,https://ofmpub.epa.gov/apex/cimc/f?p=CIMC:REPOWER:::::P6_REFERENCE:,https://ofmpub.epa.gov/frs_public2/fii_query_detail.disp_program_facility?p_registry_id=110070247611,https://ofmpub.epa.gov/apex/cimcf?p=CIMC:MAP:::::P71_GEOSEARCH:34.85492 -82.40907,34.863455,-82.418341,osm
806 GREEN AVENUE PROPERTY,806 GREEN AVENUE,GREENVILLE,SC,29604,GREENVILLE,,"https://ofmpub.epa.gov/apex/cimc/f?p=100:31::::31,0:P31_ID:132024",,,,,https://ofmpub.epa.gov/apex/cimc/f?p=CIMC:REPOWER:::::P6_REFERENCE:32432,https://ofmpub.epa.gov/frs_public2/fii_query_detail.disp_program_facility?p_registry_id=110043638150,https://ofmpub.epa.gov/apex/cimcf?p=CIMC:MAP:::::P71_GEOSEARCH:34.83344 -82.41399,34.83357245,-82.4141337135068,osm
818 DIXIE AVENUE,818 DIXIE AVENUE,COLUMBIA,SC,29203,RICHLAND,,"https://ofmpub.epa.gov/apex/cimc/f?p=100:31::::31,0:P31_ID:122761",,,,,https://ofmpub.epa.gov/apex/cimc/f?p=CIMC:REPOWER:::::P6_REFERENCE:32203,https://ofmpub.epa.gov/frs_public2/fii_query_detail.disp_program_facility?p_registry_id=110043083187,https://ofmpub.epa.gov/apex/cimcf?p=CIMC:MAP:::::P71_GEOSEARCH:34.05164 -81.03984,34.05171,-81.03946,census
8547 W WASHINGTON ST,8547 W WASHINGTON ST,GREENVILLE,SC,29601,,,"https://ofmpub.epa.gov/apex/cimc/f?p=100:31::::31,0:P31_ID:242268",,,,,,,https://ofmpub.epa.gov/apex/cimcf?p=CIMC:MAP:::::P71_GEOSEARCH:34.856695 -82.41382,34.8507678,-82.3990726,osm
916-924 GERVAIS STREET PROPERTIES,"916, 920, 922, AND 924 GERVAIS STREET",COLUMBIA,SC,29201,RICHLAND COUNTY,,"https://ofmpub.epa.gov/apex/cimc/f?p=100:31::::31,0:P31_ID:124857",,,,,https://ofmpub.epa.gov/apex/cimc/f?p=CIMC:REPOWER:::::P6_REFERENCE:32254,https://ofmpub.epa.gov/frs_public2/fii_query_detail.disp_program_facility?p_registry_id=110045012446,https://ofmpub.epa.gov/apex/cimcf?p=CIMC:MAP:::::P71_GEOSEARCH:33.999948 -81.037417,,,osm
ADDITIONAL CSX RAIL LINE,UNKNOWN,GREENVILLE,SC,29601,GREENVILLE,,"https://ofmpub.epa.gov/apex/cimc/f?p=100:31::::31,0:P31_ID:14780",,,,,https://ofmpub.epa.gov/apex/cimc/f?p=CIMC:REPOWER:::::P6_REFERENCE:30422,https://ofmpub.epa.gov/frs_public2/fii_query_detail.disp_program_facility?p_registry_id=110039546881,https://ofmpub.epa.gov/apex/cimcf?p=CIMC:MAP:::::P71_GEOSEARCH:34.84803 -82.400238,34.8487299,-82.4040922,osm
ADEN BONDED WAREHOUSE,170 ARCH STREET,SPARTANBURG,SC,29303,SPARTANBURG,,"https://ofmpub.epa.gov/apex/cimc/f?p=100:31::::31,0:P31_ID:110083",,,,,https://ofmpub.epa.gov/apex/cimc/f?p=CIMC:REPOWER:::::P6_REFERENCE:31966,https://ofmpub.epa.gov/frs_public2/fii_query_detail.disp_program_facility?p_registry_id=110044215006,https://ofmpub.epa.gov/apex/cimcf?p=CIMC:MAP:::::P71_GEOSEARCH:34.95615 -81.94646,34.9549041,-81.9482149,osm
AIKEN HOSPITAL,828 RICHLAND AVENUE WEST,AIKEN,SC,29801,,,"https://ofmpub.epa.gov/apex/cimc/f?p=100:31::::31,0:P31_ID:244452",,,,,,,https://ofmpub.epa.gov/apex/cimcf?p=CIMC:MAP:::::P71_GEOSEARCH:33.564368 -81.729212,33.55737,-81.709076,census
AIKEN LANDFILL,BEAUFORT STREET,AIKEN,SC,29801,AIKEN,,"https://ofmpub.epa.gov/apex/cimc/f?p=100:31::::31,0:P31_ID:241155",,,,,https://ofmpub.epa.gov/apex/cimc/f?p=CIMC:REPOWER:::::P6_REFERENCE:,https://ofmpub.epa.gov/frs_public2/fii_query_detail.disp_program_facility?p_registry_id=110070671423,https://ofmpub.epa.gov/apex/cimcf?p=CIMC:MAP:::::P71_GEOSEARCH:33.565324 -81.698264,33.572709,-81.7003272,osm
ALICIA AUTOMOTIVE COMPANY,8630 AUGUSTA RD,PELZER,SC,29669,GREENVILLE,,"https://ofmpub.epa.gov/apex/cimc/f?p=100:31::::31,0:P31_ID:22321",,,,,https://ofmpub.epa.gov/apex/cimc/f?p=CIMC:REPOWER:::::P6_REFERENCE:30529,https://ofmpub.epa.gov/frs_public2/fii_query_detail.disp_program_facility?p_registry_id=110017115085,https://ofmpub.epa.gov/apex/cimcf?p=CIMC:MAP:::::P71_GEOSEARCH:34.67245 -82.39877,34.67275,-82.39861,census
ALLEN'S GARAGE,SE CORNER BUFORD BRIDGE HWY & MAIN STREET,SYCAMORE,SC,29846,ALLENDALE,,"https://ofmpub.epa.gov/apex/cimc/f?p=100:31::::31,0:P31_ID:182541",,,,,https://ofmpub.epa.gov/apex/cimc/f?p=CIMC:REPOWER:::::P6_REFERENCE:33393,https://ofmpub.epa.gov/frs_public2/fii_query_detail.disp_program_facility?p_registry_id=110063699289,https://ofmpub.epa.gov/apex/cimcf?p=CIMC:MAP:::::P71_GEOSEARCH:33.036265 -81.222037,,,osm
ALLENDALE COUNTY NURSING HOME,BELLS & BARNWELL RD,ALLENDALE,SC,29810,ALLENDALE,,"https://ofmpub.epa.gov/apex/cimc/f?p=100:31::::31,0:P31_ID:240473",,,,,https://ofmpub.epa.gov/apex/cimc/f?p=CIMC:REPOWER:::::P6_REFERENCE:,https://ofmpub.epa.gov/frs_public2/fii_query_detail.disp_program_facility?p_registry_id=110070605142,https://ofmpub.epa.gov/apex/cimcf?p=CIMC:MAP:::::P71_GEOSEARCH:33.02281 -81.31167,33.02276,-81.31164,census
AMERICAN HOUSE SPINNING,356 MAULDIN RD,CENTRAL,SC,29630,PICKENS,,"https://ofmpub.epa.gov/apex/cimc/f?p=100:31::::31,0:P31_ID:236783",,,,,https://ofmpub.epa.gov/apex/cimc/f?p=CIMC:REPOWER:::::P6_REFERENCE:,https://ofmpub.epa.gov/frs_public2/fii_query_detail.disp_program_facility?p_registry_id=110002178688,https://ofmpub.epa.gov/apex/cimcf?p=CIMC:MAP:::::P71_GEOSEARCH:34.720833 -82.793055,34.717552,-82.78925,census
AMERICAN THREAD,401 SOUTH MAIN STREET,CLOVER,SC,29710,YORK,,"https://ofmpub.epa.gov/apex/cimc/f?p=100:31::::31,0:P31_ID:241471",,,,,https://ofmpub.epa.gov/apex/cimc/f?p=CIMC:REPOWER:::::P6_REFERENCE:,https://ofmpub.epa.gov/frs_public2/fii_query_detail.disp_program_facility?p_registry_id=110070675674,https://ofmpub.epa.gov/apex/cimcf?p=CIMC:MAP:::::P71_GEOSEARCH:35.10553 -81.23062,35.11623,-81.22464,census
AMTRAK STATION & CSX RIGHT-OF-WAY,4565 GAYNOR STREET,NORTH CHARLESTON,SC,29405,CHARLESTON,,"https://ofmpub.epa.gov/apex/cimc/f?p=100:31::::31,0:P31_ID:150022",,,,,https://ofmpub.epa.gov/apex/cimc/f?p=CIMC:REPOWER:::::P6_REFERENCE:32867,https://ofmpub.epa.gov/frs_public2/fii_query_detail.disp_program_facility?p_registry_id=110054625704,https://ofmpub.epa.gov/apex/cimcf?p=CIMC:MAP:::::P71_GEOSEARCH:32.8761 -79.998157,32.873615,-79.996704,census
ANDERSON MILL,100 RIVER ST W,ANDERSON,SC,29624,ANDERSON,,"https://ofmpub.epa.gov/apex/cimc/f?p=100:31::::31,0:P31_ID:14575",,,,,https://ofmpub.epa.gov/apex/cimc/f?p=CIMC:REPOWER:::::P6_REFERENCE:30362,https://ofmpub.epa.gov/frs_public2/fii_query_detail.disp_program_facility?p_registry_id=110039556539,https://ofmpub.epa.gov/apex/cimcf?p=CIMC:MAP:::::P71_GEOSEARCH:34.52297 -82.49358,,,osm
ANDERSON MILL SITE - RAILROAD CIRCLE,1322 GLENN STREET AND 354 RAILROAD CIRCLE,ANDERSON,SC,29624,,,"https://ofmpub.epa.gov/apex/cimc/f?p=100:31::::31,0:P31_ID:244769",,,,,,,https://ofmpub.epa.gov/apex/cimcf?p=CIMC:MAP:::::P71_GEOSEARCH:34.50612 -82.655279,34.505985,-82.65502,census
ANDERSON UNIVERSITY,821 WILLIAMSTON ROAD,ANDERSON,SC,29621,ANDERSON,,"https://ofmpub.epa.gov/apex/cimc/f?p=100:31::::31,0:P31_ID:218861",,,,,https://ofmpub.epa.gov/apex/cimc/f?p=CIMC:REPOWER:::::P6_REFERENCE:33715,https://ofmpub.epa.gov/frs_public2/fii_query_detail.disp_program_facility?p_registry_id=110069442482,https://ofmpub.epa.gov/apex/cimcf?p=CIMC:MAP:::::P71_GEOSEARCH:34.503569 -82.614973,34.50635,-82.62266,census
ARG PROPERTIES,45 EAST MAIN STREET,GREENVILLE,SC,29611,GREENVILLE,,"https://ofmpub.epa.gov/apex/cimc/f?p=100:31::::31,0:P31_ID:222561",,,,,https://ofmpub.epa.gov/apex/cimc/f?p=CIMC:REPOWER:::::P6_REFERENCE:33761,https://ofmpub.epa.gov/frs_public2/fii_query_detail.disp_program_facility?p_registry_id=110070004514,https://ofmpub.epa.gov/apex/cimcf?p=CIMC:MAP:::::P71_GEOSEARCH:34.851836 -82.424041,34.851727,-82.42368,census
ARKWRIGHT MILL,788 PROVIDENCE RD,ORANGEBURG,SC,29118,ORANGEBURG,,"https://ofmpub.epa.gov/apex/cimc/f?p=100:31::::31,0:P31_ID:12471",,,,,https://ofmpub.epa.gov/apex/cimc/f?p=CIMC:REPOWER:::::P6_REFERENCE:30144,https://ofmpub.epa.gov/frs_public2/fii_query_detail.disp_program_facility?p_registry_id=110039536776,https://ofmpub.epa.gov/apex/cimcf?p=CIMC:MAP:::::P71_GEOSEARCH:33.620685 -80.950561,33.612167,-80.952705,census
ARKWRIGHT MILLS,971/975 SOUTH LIBERTY STREET,SPARTANBURG,SC,29306,SPARTANBURG,,"https://ofmpub.epa.gov/apex/cimc/f?p=100:31::::31,0:P31_ID:15851",,,,,https://ofmpub.epa.gov/apex/cimc/f?p=CIMC:REPOWER:::::P6_REFERENCE:30454,https://ofmpub.epa.gov/frs_public2/fii_query_detail.disp_program_facility?p_registry_id=110038748889,https://ofmpub.epa.gov/apex/cimcf?p=CIMC:MAP:::::P71_GEOSEARCH:34.9293 -81.93066,34.926826,-81.93024,census
ASHLEY SHORES PROPERTY,ASHLEY SHORES DRIVE,NORTH CHARLESTON,SC,29406,CHARLESTON,,"https://ofmpub.epa.gov/apex/cimc/f?p=100:31::::31,0:P31_ID:165581",,,,,https://ofmpub.epa.gov/apex/cimc/f?p=CIMC:REPOWER:::::P6_REFERENCE:33084,https://ofmpub.epa.gov/frs_public2/fii_query_detail.disp_program_facility?p_registry_id=110059721430,https://ofmpub.epa.gov/apex/cimcf?p=CIMC:MAP:::::P71_GEOSEARCH:32.84408 -79.99231,32.8457691,-79.9918798,osm
BABCOCK CENTER¿S DAVID E. STEWART FACILITY,5540 RIDGEWOOD CAMP ROAD,COLUMBIA,SC,29203,RICHLAND,,"https://ofmpub.epa.gov/apex/cimc/f?p=100:31::::31,0:P31_ID:128522",,,,,https://ofmpub.epa.gov/apex/cimc/f?p=CIMC:REPOWER:::::P6_REFERENCE:32371,https://ofmpub.epa.gov/frs_public2/fii_query_detail.disp_program_facility?p_registry_id=110043455640,https://ofmpub.epa.gov/apex/cimcf?p=CIMC:MAP:::::P71_GEOSEARCH:34.055303 -81.047097,,,osm
BARNETT PROPERTY,22 HAMMETT STREET,GREENVILLE,SC,29609,GREENVILLE,,"https://ofmpub.epa.gov/apex/cimc/f?p=100:31::::31,0:P31_ID:177863",,,,,https://ofmpub.epa.gov/apex/cimc/f?p=CIMC:REPOWER:::::P6_REFERENCE:33369,https://ofmpub.epa.gov/frs_public2/fii_query_detail.disp_program_facility?p_registry_id=110064402720,https://ofmpub.epa.gov/apex/cimcf?p=CIMC:MAP:::::P71_GEOSEARCH:34.871667 -82.408147,34.87126,-82.40718,census
BEAUMONT - LAND TRACT,N. PINE AND ISOM STREETS,SPARTANBURG,SC,29303,SPARTANBURG,,"https://ofmpub.epa.gov/apex/cimc/f?p=100:31::::31,0:P31_ID:134901",,,,,https://ofmpub.epa.gov/apex/cimc/f?p=CIMC:REPOWER:::::P6_REFERENCE:32502,https://ofmpub.epa.gov/frs_public2/fii_query_detail.disp_program_facility?p_registry_id=110044214276,https://ofmpub.epa.gov/apex/cimcf?p=CIMC:MAP:::::P71_GEOSEARCH:34.963312 -81.926987,34.963284,-81.926926,census
BEAUMONT - MILL TRACT,ORCHARD STREET,SPARTANBURG,SC,29303,SPARTANBURG,,"https://ofmpub.epa.gov/apex/cimc/f?p=100:31::::31,0:P31_ID:110087",,,,,https://ofmpub.epa.gov/apex/cimc/f?p=CIMC:REPOWER:::::P6_REFERENCE:31970,https://ofmpub.epa.gov/frs_public2/fii_query_detail.disp_program_facility?p_registry_id=110044215024,https://ofmpub.epa.gov/apex/cimcf?p=CIMC:MAP:::::P71_GEOSEARCH:34.9619 -81.92799,35.089215,-81.848479,osm
BELL BUOY SEAFOOD SITE,3706 DOCKSIDE ROAD,EDISTO ISLAND,SC,29438,COLLETON,,"https://ofmpub.epa.gov/apex/cimc/f?p=100:31::::31,0:P31_ID:136969",,,,,https://ofmpub.epa.gov/apex/cimc/f?p=CIMC:REPOWER:::::P6_REFERENCE:32542,https://ofmpub.epa.gov/frs_public2/fii_query_detail.disp_program_facility?p_registry_id=110046370217,https://ofmpub.epa.gov/apex/cimcf?p=CIMC:MAP:::::P71_GEOSEARCH:32.492017 -80.33988,32.491997,-80.331474,census
BETHEL AME CHURCH/RENAISSANCE FOUNDATION,1528 SUMTER ST.,COLUMBIA,SC,29201,RICHLAND,,"https://ofmpub.epa.gov/apex/cimc/f?p=100:31::::31,0:P31_ID:111151",,,,,https://ofmpub.epa.gov/apex/cimc/f?p=CIMC:REPOWER:::::P6_REFERENCE:32025,https://ofmpub.epa.gov/frs_public2/fii_query_detail.disp_program_facility?p_registry_id=110040823099,https://ofmpub.epa.gov/apex/cimcf?p=CIMC:MAP:::::P71_GEOSEARCH:34.006194 -81.033937,34.006107,-81.033844,census
BIBB COMPANY,SC HWY 72,CALHOUN FALLS,SC,29628,ABBEVILLE,,"https://ofmpub.epa.gov/apex/cimc/f?p=100:31::::31,0:P31_ID:10385",,,,,https://ofmpub.epa.gov/apex/cimc/f?p=CIMC:REPOWER:::::P6_REFERENCE:29992,https://ofmpub.epa.gov/frs_public2/fii_query_detail.disp_program_facility?p_registry_id=110038692527,https://ofmpub.epa.gov/apex/cimcf?p=CIMC:MAP:::::P71_GEOSEARCH:34.091029 -82.59741,34.0970541,-82.5783798,osm
BIG D'S RESTAURANT,1300 RUTLEDGE AVENUE,CHARLESTON,SC,29403,CHARLESTON,,"https://ofmpub.epa.gov/apex/cimc/f?p=100:31::::31,0:P31_ID:15855",,,,,https://ofmpub.epa.gov/apex/cimc/f?p=CIMC:REPOWER:::::P6_REFERENCE:30455,https://ofmpub.epa.gov/frs_public2/fii_query_detail.disp_program_facility?p_registry_id=110038703793,https://ofmpub.epa.gov/apex/cimcf?p=CIMC:MAP:::::P71_GEOSEARCH:32.81276 -79.95485,32.812458,-79.95488,census
BILLY YOUNG IGA,HICKORY/US 278,ALLENDALE,SC,29810,ALLENDALE,,"https://ofmpub.epa.gov/apex/cimc/f?p=100:31::::31,0:P31_ID:204001",,,,,https://ofmpub.epa.gov/apex/cimc/f?p=CIMC:REPOWER:::::P6_REFERENCE:33567,https://ofmpub.epa.gov/frs_public2/fii_query_detail.disp_program_facility?p_registry_id=110067152805,https://ofmpub.epa.gov/apex/cimcf?p=CIMC:MAP:::::P71_GEOSEARCH:33.009709 -81.306409,33.008551046264,-81.3060654757315,osm
BIRT PROPERTIES,ORANGEBURG STREET AND S. RHETT AVENUE,NORTH CHARLESTON,SC,29405,CHARLESTON,,"https://ofmpub.epa.gov/apex/cimc/f?p=100:31::::31,0:P31_ID:165321",,,,,https://ofmpub.epa.gov/apex/cimc/f?p=CIMC:REPOWER:::::P6_REFERENCE:33080,https://ofmpub.epa.gov/frs_public2/fii_query_detail.disp_program_facility?p_registry_id=110059721412,https://ofmpub.epa.gov/apex/cimcf?p=CIMC:MAP:::::P71_GEOSEARCH:32.86722 -79.98495,32.86724,-79.98494,census
BLUFFTON LANDFILL,STATE HIGHWAY 46,BLUFFTON,SC,29910,BEAUFORT,,"https://ofmpub.epa.gov/apex/cimc/f?p=100:31::::31,0:P31_ID:58881",,,,,https://ofmpub.epa.gov/apex/cimc/f?p=CIMC:REPOWER:::::P6_REFERENCE:30827,https://ofmpub.epa.gov/frs_public2/fii_query_detail.disp_program_facility?p_registry_id=110038758546,https://ofmpub.epa.gov/apex/cimcf?p=CIMC:MAP:::::P71_GEOSEARCH:32.268 -80.889,32.2301949,-80.9123011,osm
BLULAND LLC,"MAYNARD STREET, GREENE STREE, AND GODFREY STREET",CHERAW,SC,29520,,,"https://ofmpub.epa.gov/apex/cimc/f?p=100:31::::31,0:P31_ID:210542",,,,,https://ofmpub.epa.gov/apex/cimc/f?p=CIMC:REPOWER:::::P6_REFERENCE:33626,https://ofmpub.epa.gov/frs_public2/fii_query_detail.disp_program_facility?p_registry_id=110070164157,https://ofmpub.epa.gov/apex/cimcf?p=CIMC:MAP:::::P71_GEOSEARCH:34.690772 -79.882982,,,osm
BOBBY JONES GROC,302 YORK ST,CAMDEN,SC,29020,KERSHAW,,"https://ofmpub.epa.gov/apex/cimc/f?p=100:31::::31,0:P31_ID:22604",,,,,https://ofmpub.epa.gov/apex/cimc/f?p=CIMC:REPOWER:::::P6_REFERENCE:30541,https://ofmpub.epa.gov/frs_public2/fii_query_detail.disp_program_facility?p_registry_id=110017041887,https://ofmpub.epa.gov/apex/cimcf?p=CIMC:MAP:::::P71_GEOSEARCH:34.24161 -80.60075,34.24163,-80.600624,census
BOMAR AVENUE DUMP,788 PROVIDENCE RD,ORANGEBURG,SC,29118,ORANGEBURG,,"https://ofmpub.epa.gov/apex/cimc/f?p=100:31::::31,0:P31_ID:12472",,,,,https://ofmpub.epa.gov/apex/cimc/f?p=CIMC:REPOWER:::::P6_REFERENCE:30145,https://ofmpub.epa.gov/frs_public2/fii_query_detail.disp_program_facility?p_registry_id=110039536794,https://ofmpub.epa.gov/apex/cimcf?p=CIMC:MAP:::::P71_GEOSEARCH:33.620685 -80.950561,33.612167,-80.952705,census
BOOZER LUMBER COMPANY,1400 ATLAS ROAD,COLUMBIA,SC,29209,RICHLAND,,"https://ofmpub.epa.gov/apex/cimc/f?p=100:31::::31,0:P31_ID:111153",,,,,https://ofmpub.epa.gov/apex/cimc/f?p=CIMC:REPOWER:::::P6_REFERENCE:32027,https://ofmpub.epa.gov/frs_public2/fii_query_detail.disp_program_facility?p_registry_id=110002371380,https://ofmpub.epa.gov/apex/cimcf?p=CIMC:MAP:::::P71_GEOSEARCH:33.95475 -80.95699,33.95359,-80.95825,census
BRENNAN BUILDING,1210-1214 MAIN STREET,COLUMBIA,SC,29201,RICHLAND,,"https://ofmpub.epa.gov/apex/cimc/f?p=100:31::::31,0:P31_ID:123224",,,,,https://ofmpub.epa.gov/apex/cimc/f?p=CIMC:REPOWER:::::P6_REFERENCE:32225,https://ofmpub.epa.gov/frs_public2/fii_query_detail.disp_program_facility?p_registry_id=110043637400,https://ofmpub.epa.gov/apex/cimcf?p=CIMC:MAP:::::P71_GEOSEARCH:34.00176 -81.03378,34.001507,-81.03362,census
BRINKLEY STATION,BRINKLEY STREET,JACKSON,SC,29831,AIKEN COUNTY,,"https://ofmpub.epa.gov/apex/cimc/f?p=100:31::::31,0:P31_ID:163625",,,,,https://ofmpub.epa.gov/apex/cimc/f?p=CIMC:REPOWER:::::P6_REFERENCE:33044,https://ofmpub.epa.gov/frs_public2/fii_query_detail.disp_program_facility?p_registry_id=110056253290,https://ofmpub.epa.gov/apex/cimcf?p=CIMC:MAP:::::P71_GEOSEARCH:33.324127 -81.781883,33.323977,-81.782082,osm
BROAD ST. PARKING GARAGE,300 E. MCBEE AVE.,GREENVILLE,SC,29601,GREENVILLE,,"https://ofmpub.epa.gov/apex/cimc/f?p=100:31::::31,0:P31_ID:206785",,,,,https://ofmpub.epa.gov/apex/cimc/f?p=CIMC:REPOWER:::::P6_REFERENCE:,https://ofmpub.epa.gov/frs_public2/fii_query_detail.disp_program_facility?p_registry_id=110070247863,https://ofmpub.epa.gov/apex/cimcf?p=CIMC:MAP:::::P71_GEOSEARCH:34.84897 -82.39738,34.848592,-82.3975977,osm
BROWN PARK,30 TOTE ROAD,CHERAW,SC,29520,,,"https://ofmpub.epa.gov/apex/cimc/f?p=100:31::::31,0:P31_ID:210521",,,,,https://ofmpub.epa.gov/apex/cimc/f?p=CIMC:REPOWER:::::P6_REFERENCE:33625,https://ofmpub.epa.gov/frs_public2/fii_query_detail.disp_program_facility?p_registry_id=110070164156,https://ofmpub.epa.gov/apex/cimcf?p=CIMC:MAP:::::P71_GEOSEARCH:34.689338 -79.879329,34.688736,-79.87887,census
BUCKEYE TERMINALS LLC CHARLESTON NORTH TERMINAL,5150 VIRGINIA AVENUE,NORTH CHARLESTON,SC,29405,CHARLESTON,,"https://ofmpub.epa.gov/apex/cimc/f?p=100:31::::31,0:P31_ID:150021",,,,,https://ofmpub.epa.gov/apex/cimc/f?p=CIMC:REPOWER:::::P6_REFERENCE:32866,https://ofmpub.epa.gov/frs_public2/fii_query_detail.disp_program_facility?p_registry_id=110006180827,https://ofmpub.epa.gov/apex/cimcf?p=CIMC:MAP:::::P71_GEOSEARCH:32.88855 -79.97283,32.88923,-79.97284,census
BUCKS GROCERY,1337 RED HILL RD,CAMDEN,SC,29020,KERSHAW,,"https://ofmpub.epa.gov/apex/cimc/f?p=100:31::::31,0:P31_ID:22421",,,,,https://ofmpub.epa.gov/apex/cimc/f?p=CIMC:REPOWER:::::P6_REFERENCE:30534,https://ofmpub.epa.gov/frs_public2/fii_query_detail.disp_program_facility?p_registry_id=110017195667,https://ofmpub.epa.gov/apex/cimcf?p=CIMC:MAP:::::P71_GEOSEARCH:34.18668 -80.47592,,,osm
BUFFALO MILL,109 MILL STREET,BUFFALO,SC,29321,UNION,,"https://ofmpub.epa.gov/apex/cimc/f?p=100:31::::31,0:P31_ID:208101",,,,,https://ofmpub.epa.gov/apex/cimc/f?p=CIMC:REPOWER:::::P6_REFERENCE:33604,https://ofmpub.epa.gov/frs_public2/fii_query_detail.disp_program_facility?p_registry_id=110067367156,https://ofmpub.epa.gov/apex/cimcf?p=CIMC:MAP:::::P71_GEOSEARCH:34.72173 -81.67854,34.72215,-81.67853,census
BUSH RECYCLING,102 WEST SUMTER STREET,FLORENCE,SC,29501,FLORENCE,,"https://ofmpub.epa.gov/apex/cimc/f?p=100:31::::31,0:P31_ID:15416",,,,,https://ofmpub.epa.gov/apex/cimc/f?p=CIMC:REPOWER:::::P6_REFERENCE:30447,https://ofmpub.epa.gov/frs_public2/fii_query_detail.disp_program_facility?p_registry_id=110038702543,https://ofmpub.epa.gov/apex/cimcf?p=CIMC:MAP:::::P71_GEOSEARCH:34.20327 -79.76776,34.203285,-79.76727,census
C E PHILLIPS FARMS,1165 PLEASANT GROVE RD,LYNCHBURG,SC,29080,LEE,,"https://ofmpub.epa.gov/apex/cimc/f?p=100:31::::31,0:P31_ID:126122",,,,,https://ofmpub.epa.gov/apex/cimc/f?p=CIMC:REPOWER:::::P6_REFERENCE:32345,https://ofmpub.epa.gov/frs_public2/fii_query_detail.disp_program_facility?p_registry_id=110046425203,https://ofmpub.epa.gov/apex/cimcf?p=CIMC:MAP:::::P71_GEOSEARCH:33.993865 -80.045686,33.99399,-80.04569,census
C H RAGSDALES GROCERY,GRANITE RD SR 12,BLAIR,SC,29015,FAIRFIELD,,"https://ofmpub.epa.gov/apex/cimc/f?p=100:31::::31,0:P31_ID:25302",,,,,https://ofmpub.epa.gov/apex/cimc/f?p=CIMC:REPOWER:::::P6_REFERENCE:30551,https://ofmpub.epa.gov/frs_public2/fii_query_detail.disp_program_facility?p_registry_id=110017150107,https://ofmpub.epa.gov/apex/cimcf?p=CIMC:MAP:::::P71_GEOSEARCH:34.41799 -81.40317,34.418392,-81.3996492,osm
C&C GARAGE,2 COURT ST W,GREENVILLE,SC,29601,GREENVILLE,,"https://ofmpub.epa.gov/apex/cimc/f?p=100:31::::31,0:P31_ID:14781",,,,,https://ofmpub.epa.gov/apex/cimc/f?p=CIMC:REPOWER:::::P6_REFERENCE:30423,https://ofmpub.epa.gov/frs_public2/fii_query_detail.disp_program_facility?p_registry_id=110061025260,https://ofmpub.epa.gov/apex/cimcf?p=CIMC:MAP:::::P71_GEOSEARCH:34.89938 -82.33166,,,osm
CAMPBELLS SERVICE,317 MAIN ST,JACKSON,SC,29831,AIKEN,,"https://ofmpub.epa.gov/apex/cimc/f?p=100:31::::31,0:P31_ID:16073",,,,,https://ofmpub.epa.gov/apex/cimc/f?p=CIMC:REPOWER:::::P6_REFERENCE:30463,https://ofmpub.epa.gov/frs_public2/fii_query_detail.disp_program_facility?p_registry_id=110017145695,https://ofmpub.epa.gov/apex/cimcf?p=CIMC:MAP:::::P71_GEOSEARCH:33.327565 -81.791759,33.3266634545455,-81.7904592727273,osm
CANNON ROOFING PROPERTY,327 KENNEDY ST,SPARTANBURG,SC,29302,SPARTANBURG,,"https://ofmpub.epa.gov/apex/cimc/f?p=100:31::::31,0:P31_ID:115383",,,,,https://ofmpub.epa.gov/apex/cimc/f?p=CIMC:REPOWER:::::P6_REFERENCE:32102,https://ofmpub.epa.gov/frs_public2/fii_query_detail.disp_program_facility?p_registry_id=110017012757,https://ofmpub.epa.gov/apex/cimcf?p=CIMC:MAP:::::P71_GEOSEARCH:34.94905 -81.92389,34.94907,-81.92379,census
CAROLINA MILLING PROPERTY,200 SOUTH STREET,LAURENS,SC,29360,LAURENS,,"https://ofmpub.epa.gov/apex/cimc/f?p=100:31::::31,0:P31_ID:11964",,,,,https://ofmpub.epa.gov/apex/cimc/f?p=CIMC:REPOWER:::::P6_REFERENCE:30101,https://ofmpub.epa.gov/frs_public2/fii_query_detail.disp_program_facility?p_registry_id=110039555111,https://ofmpub.epa.gov/apex/cimcf?p=CIMC:MAP:::::P71_GEOSEARCH:34.49823 -82.01362,34.498113,-82.014513,osm
CARRIAGE HOUSE,198 FLORIDA STREET,CLINTON,SC,29325,LAURENS,,"https://ofmpub.epa.gov/apex/cimc/f?p=100:31::::31,0:P31_ID:239150",,,,,https://ofmpub.epa.gov/apex/cimc/f?p=CIMC:REPOWER:::::P6_REFERENCE:,https://ofmpub.epa.gov/frs_public2/fii_query_detail.disp_program_facility?p_registry_id=110070556168,https://ofmpub.epa.gov/apex/cimcf?p=CIMC:MAP:::::P71_GEOSEARCH:34.47512 -81.87989,34.475105,-81.88132,census
CARRIGGS SEAFOOD,2118 HERIOT STREET,CHARLESTON,SC,29403,CHARLESTON,,"https://ofmpub.epa.gov/apex/cimc/f?p=100:31::::31,0:P31_ID:11845",,,,,https://ofmpub.epa.gov/apex/cimc/f?p=CIMC:REPOWER:::::P6_REFERENCE:30094,https://ofmpub.epa.gov/frs_public2/fii_query_detail.disp_program_facility?p_registry_id=110015361339,https://ofmpub.epa.gov/apex/cimcf?p=CIMC:MAP:::::P71_GEOSEARCH:32.81612 -79.95246,32.8161,-79.95244,census
CENTRAL CONCRETE & PLASTER,211 E MAIN STREET,CENTRAL,SC,29630,PICKENS,,"https://ofmpub.epa.gov/apex/cimc/f?p=100:31::::31,0:P31_ID:229541",,,,,https://ofmpub.epa.gov/apex/cimc/f?p=CIMC:REPOWER:::::P6_REFERENCE:33859,https://ofmpub.epa.gov/frs_public2/fii_query_detail.disp_program_facility?p_registry_id=110070057738,https://ofmpub.epa.gov/apex/cimcf?p=CIMC:MAP:::::P71_GEOSEARCH:34.72506 -82.77792,34.9913015992626,-81.8447374933258,osm
CENTRAL GARAGE,704 W MAIN ST,CENTRAL,SC,29630,PICKENS,,"https://ofmpub.epa.gov/apex/cimc/f?p=100:31::::31,0:P31_ID:229321",,,,,https://ofmpub.epa.gov/apex/cimc/f?p=CIMC:REPOWER:::::P6_REFERENCE:33852,https://ofmpub.epa.gov/frs_public2/fii_query_detail.disp_program_facility?p_registry_id=110016983610,https://ofmpub.epa.gov/apex/cimcf?p=CIMC:MAP:::::P71_GEOSEARCH:34.72161 -82.785,34.721817,-82.78484,census
CENTRAL LAUNDROMAT,703 W MAIN STREET,CENTRAL,SC,29630,PICKENS,,"https://ofmpub.epa.gov/apex/cimc/f?p=100:31::::31,0:P31_ID:229542",,,,,https://ofmpub.epa.gov/apex/cimc/f?p=CIMC:REPOWER:::::P6_REFERENCE:33860,https://ofmpub.epa.gov/frs_public2/fii_query_detail.disp_program_facility?p_registry_id=110070057672,https://ofmpub.epa.gov/apex/cimcf?p=CIMC:MAP:::::P71_GEOSEARCH:34.72161 -82.785,34.7103951,-82.7918186,osm
CENTRAL ROLLER MILL,300 MADDEN BRIDGE ROAD,CENTRAL,SC,29630,PICKENS,,"https://ofmpub.epa.gov/apex/cimc/f?p=100:31::::31,0:P31_ID:239730",,,,,https://ofmpub.epa.gov/apex/cimc/f?p=CIMC:REPOWER:::::P6_REFERENCE:,https://ofmpub.epa.gov/frs_public2/fii_query_detail.disp_program_facility?p_registry_id=110070629028,https://ofmpub.epa.gov/apex/cimcf?p=CIMC:MAP:::::P71_GEOSEARCH:34.72444 -82.78464,34.723137,-82.798065,osm
CERTAINTEED,2900 BIRD STREET,NORTH CHARLESTON,SC,29405,CHARLESTON,,"https://ofmpub.epa.gov/apex/cimc/f?p=100:31::::31,0:P31_ID:172821",,,,,https://ofmpub.epa.gov/apex/cimc/f?p=CIMC:REPOWER:::::P6_REFERENCE:,https://ofmpub.epa.gov/frs_public2/fii_query_detail.disp_program_facility?p_registry_id=110017203523,https://ofmpub.epa.gov/apex/cimcf?p=CIMC:MAP:::::P71_GEOSEARCH:32.84162 -80.00901,32.84212,-80.0087,census
CHARLESTON COUNTY LANDFILL,788 PROVIDENCE RD,ORANGEBURG,SC,29118,CHARLESTON,,"https://ofmpub.epa.gov/apex/cimc/f?p=100:31::::31,0:P31_ID:11843",,,,,https://ofmpub.epa.gov/apex/cimc/f?p=CIMC:REPOWER:::::P6_REFERENCE:30092,https://ofmpub.epa.gov/frs_public2/fii_query_detail.disp_program_facility?p_registry_id=110039547773,https://ofmpub.epa.gov/apex/cimcf?p=CIMC:MAP:::::P71_GEOSEARCH:33.620685 -80.950561,33.612167,-80.952705,census
CHARLESTON OIL CO INC,1553 KING ST EXT,CHARLESTON,SC,29405,CHARLESTON,,"https://ofmpub.epa.gov/apex/cimc/f?p=100:31::::31,0:P31_ID:11846",,,,,https://ofmpub.epa.gov/apex/cimc/f?p=CIMC:REPOWER:::::P6_REFERENCE:30095,https://ofmpub.epa.gov/frs_public2/fii_query_detail.disp_program_facility?p_registry_id=110020007927,https://ofmpub.epa.gov/apex/cimcf?p=CIMC:MAP:::::P71_GEOSEARCH:32.8202 -79.95213,32.823868,-79.95264,census
CHERAW BI-LO,8 CHESTERFIELD HIGHWAY,CHERAW,SC,29520,CHESTERFIELD,,"https://ofmpub.epa.gov/apex/cimc/f?p=100:31::::31,0:P31_ID:235297",,,,,https://ofmpub.epa.gov/apex/cimc/f?p=CIMC:REPOWER:::::P6_REFERENCE:33963,https://ofmpub.epa.gov/frs_public2/fii_query_detail.disp_program_facility?p_registry_id=110070164266,https://ofmpub.epa.gov/apex/cimcf?p=CIMC:MAP:::::P71_GEOSEARCH:34.689834 -79.898066,34.689884,-79.89803,census
CHERAW COMMUNITY CENTER,419 2ND STREET,CHERAW,SC,29520,CHESTERFIELD,,"https://ofmpub.epa.gov/apex/cimc/f?p=100:31::::31,0:P31_ID:228147",,,,,https://ofmpub.epa.gov/apex/cimc/f?p=CIMC:REPOWER:::::P6_REFERENCE:33838,https://ofmpub.epa.gov/frs_public2/fii_query_detail.disp_program_facility?p_registry_id=110070164190,https://ofmpub.epa.gov/apex/cimcf?p=CIMC:MAP:::::P71_GEOSEARCH:34.703249 -79.887732,34.70316,-79.887665,census
CHESTER PAVILION,111 &AMP; 113 COLUMBIA STREET,CHESTER,SC,29706,CHESTER,,"https://ofmpub.epa.gov/apex/cimc/f?p=100:31::::31,0:P31_ID:242160",,,,,https://ofmpub.epa.gov/apex/cimc/f?p=CIMC:REPOWER:::::P6_REFERENCE:,https://ofmpub.epa.gov/frs_public2/fii_query_detail.disp_program_facility?p_registry_id=110070789881,https://ofmpub.epa.gov/apex/cimcf?p=CIMC:MAP:::::P71_GEOSEARCH:34.704031 -81.21343,,,osm
CHESTERFIELD HIGHWAY TRACT,CHESTERFIELD HIGHWAY,CHERAW,SC,29520,CHESTERFIELD,,"https://ofmpub.epa.gov/apex/cimc/f?p=100:31::::31,0:P31_ID:228146",,,,,https://ofmpub.epa.gov/apex/cimc/f?p=CIMC:REPOWER:::::P6_REFERENCE:33837,https://ofmpub.epa.gov/frs_public2/fii_query_detail.disp_program_facility?p_registry_id=110070164189,https://ofmpub.epa.gov/apex/cimcf?p=CIMC:MAP:::::P71_GEOSEARCH:34.697496 -79.94125,34.6996851,-79.934281,osm
CHEVROLET DEALERSHIP,319 ANN ST,PICKENS,SC,29671,,,"https://ofmpub.epa.gov/apex/cimc/f?p=100:31::::31,0:P31_ID:244477",,,,,,,https://ofmpub.epa.gov/apex/cimcf?p=CIMC:MAP:::::P71_GEOSEARCH:34.889455 -82.711189,34.888824,-82.71001,census
CHICORA TANK FARM PROPERTY,CARNER AVENUE,NORTH CHARLESTON,SC,29405,CHARLESTON,,"https://ofmpub.epa.gov/apex/cimc/f?p=100:31::::31,0:P31_ID:110723",,,,,https://ofmpub.epa.gov/apex/cimc/f?p=CIMC:REPOWER:::::P6_REFERENCE:32001,https://ofmpub.epa.gov/frs_public2/fii_query_detail.disp_program_facility?p_registry_id=110043424871,https://ofmpub.epa.gov/apex/cimcf?p=CIMC:MAP:::::P71_GEOSEARCH:32.848807 -79.966506,32.8477803,-79.9671835,osm
CHIQUOLA INDUSTRIAL PRODUCTS GROUP LLC,410 CHIQUOLA AVENUE,HONEA PATH,SC,29654,ANDERSON,,"https://ofmpub.epa.gov/apex/cimc/f?p=100:31::::31,0:P31_ID:239928",,,,,https://ofmpub.epa.gov/apex/cimc/f?p=CIMC:REPOWER:::::P6_REFERENCE:,https://ofmpub.epa.gov/frs_public2/fii_query_detail.disp_program_facility?p_registry_id=110002198595,https://ofmpub.epa.gov/apex/cimcf?p=CIMC:MAP:::::P71_GEOSEARCH:34.45151 -82.39215,34.4512160586299,-82.3922546034848,osm
CITY MARKET ARTS & ANTIQUES,"705, 707, & 711 GERVAIS STREET",COLUMBIA,SC,29201,RICHLAND,,"https://ofmpub.epa.gov/apex/cimc/f?p=100:31::::31,0:P31_ID:132401",,,,,https://ofmpub.epa.gov/apex/cimc/f?p=CIMC:REPOWER:::::P6_REFERENCE:,https://ofmpub.epa.gov/frs_public2/fii_query_detail.disp_program_facility?p_registry_id=110043638310,https://ofmpub.epa.gov/apex/cimcf?p=CIMC:MAP:::::P71_GEOSEARCH:33.999244 -81.040797,,,osm
CITY OF LAKE CITY WASTEWATER SITE,265 NORTH CHURCH STREET,LAKE CITY,SC,29560,,,"https://ofmpub.epa.gov/apex/cimc/f?p=100:31::::31,0:P31_ID:232881",,,,,,,https://ofmpub.epa.gov/apex/cimcf?p=CIMC:MAP:::::P71_GEOSEARCH:33.874814 -79.750525,33.874863,-79.750496,census
CITY PARK WETLANDS,MEADOW STREET & TRESCOTT STREET,GREENVILLE,SC,29601,GREENVILLE,,"https://ofmpub.epa.gov/apex/cimc/f?p=100:31::::31,0:P31_ID:227902",,,,,https://ofmpub.epa.gov/apex/cimc/f?p=CIMC:REPOWER:::::P6_REFERENCE:,https://ofmpub.epa.gov/frs_public2/fii_query_detail.disp_program_facility?p_registry_id=110070247564,https://ofmpub.epa.gov/apex/cimcf?p=CIMC:MAP:::::P71_GEOSEARCH:,34.85467,-82.41258,census
CLEVELAND PARK AND CITY ZOO,103 CLEVELAND PARK DRIVE,GREENVILLE,SC,29607,GREENVILLE COUNTY,,"https://ofmpub.epa.gov/apex/cimc/f?p=100:31::::31,0:P31_ID:225741",,,,,https://ofmpub.epa.gov/apex/cimc/f?p=CIMC:REPOWER:::::P6_REFERENCE:33798,https://ofmpub.epa.gov/frs_public2/fii_query_detail.disp_program_facility?p_registry_id=110070004571,https://ofmpub.epa.gov/apex/cimcf?p=CIMC:MAP:::::P71_GEOSEARCH:34.846398 -82.387123,34.846016,-82.38777,census
CLEVELAND PARK STABLES,130 WOODLAND WAY,GREENVILLE,SC,29607,GREENVILLE COUNTY,,"https://ofmpub.epa.gov/apex/cimc/f?p=100:31::::31,0:P31_ID:225621",,,,,https://ofmpub.epa.gov/apex/cimc/f?p=CIMC:REPOWER:::::P6_REFERENCE:33795,https://ofmpub.epa.gov/frs_public2/fii_query_detail.disp_program_facility?p_registry_id=110070004642,https://ofmpub.epa.gov/apex/cimcf?p=CIMC:MAP:::::P71_GEOSEARCH:34.84103 -82.38586,34.840977,-82.386311,osm
CMMC - BUILDING 13,PIPEFITTER STREET,NORTH CHARLESTON,SC,29405,CHARLESTON,,"https://ofmpub.epa.gov/apex/cimc/f?p=100:31::::31,0:P31_ID:163961",,,,,https://ofmpub.epa.gov/apex/cimc/f?p=CIMC:REPOWER:::::P6_REFERENCE:33046,https://ofmpub.epa.gov/frs_public2/fii_query_detail.disp_program_facility?p_registry_id=110059721305,https://ofmpub.epa.gov/apex/cimcf?p=CIMC:MAP:::::P71_GEOSEARCH:32.86089 -79.96538,32.8609697,-79.9653275,osm
COASTAL LUMBER,1857 BELLS HWY,WALTERBORO,SC,29488,COLLETON,,"https://ofmpub.epa.gov/apex/cimc/f?p=100:31::::31,0:P31_ID:238465",,,,,https://ofmpub.epa.gov/apex/cimc/f?p=CIMC:REPOWER:::::P6_REFERENCE:,https://ofmpub.epa.gov/frs_public2/fii_query_detail.disp_program_facility?p_registry_id=110002233529,https://ofmpub.epa.gov/apex/cimcf?p=CIMC:MAP:::::P71_GEOSEARCH:32.931396 -80.691714,32.9298855,-80.6894036,osm
COKER COLLEGE PROPERTY,115 COKER AVENUE AND 411 BYERLEY AVENUE,HARTSVILLE,SC,29550,DARLINGTON,,"https://ofmpub.epa.gov/apex/cimc/f?p=100:31::::31,0:P31_ID:145443",,,,,https://ofmpub.epa.gov/apex/cimc/f?p=CIMC:REPOWER:::::P6_REFERENCE:32735,https://ofmpub.epa.gov/frs_public2/fii_query_detail.disp_program_facility?p_registry_id=110046370672,https://ofmpub.epa.gov/apex/cimcf?p=CIMC:MAP:::::P71_GEOSEARCH:34.374902 -80.067177,34.376102,-80.0676,census
COLITE INDUSTRIES,228 PARSON ST.,WEST COLUMBIA,SC,29169,LEXINGTON,,"https://ofmpub.epa.gov/apex/cimc/f?p=100:31::::31,0:P31_ID:111142",,,,,https://ofmpub.epa.gov/apex/cimc/f?p=CIMC:REPOWER:::::P6_REFERENCE:32016,https://ofmpub.epa.gov/frs_public2/fii_query_detail.disp_program_facility?p_registry_id=110040823062,https://ofmpub.epa.gov/apex/cimcf?p=CIMC:MAP:::::P71_GEOSEARCH:33.98826 -81.07738,33.98608,-81.0768817142857,osm
COLLETON COUNTY DOWNTOWN PROPERTIES,CORNER OF JEFFRIES BLVD AND BENSEN ST TO WASHINGTO,WALTERBORO,SC,29488,COLLETON,,"https://ofmpub.epa.gov/apex/cimc/f?p=100:31::::31,0:P31_ID:238609",,,,,https://ofmpub.epa.gov/apex/cimc/f?p=CIMC:REPOWER:::::P6_REFERENCE:,https://ofmpub.epa.gov/frs_public2/fii_query_detail.disp_program_facility?p_registry_id=110070789695,https://ofmpub.epa.gov/apex/cimcf?p=CIMC:MAP:::::P71_GEOSEARCH:,,,osm
COLUMBIA COLLEGE PARCELS A & B,"4626, 4638, 4630 N. MAIN ST.",COLUMBIA,SC,29203,RICHLAND,,"https://ofmpub.epa.gov/apex/cimc/f?p=100:31::::31,0:P31_ID:61861",,,,,https://ofmpub.epa.gov/apex/cimc/f?p=CIMC:REPOWER:::::P6_REFERENCE:30846,https://ofmpub.epa.gov/frs_public2/fii_query_detail.disp_program_facility?p_registry_id=110038716360,https://ofmpub.epa.gov/apex/cimcf?p=CIMC:MAP:::::P71_GEOSEARCH:34.04572 -81.03328,,,osm
COMMERCIAL PROPERTY 805 S MAIN ST,805 S MAIN ST,ANDERSON,SC,29624,ANDERSON,,"https://ofmpub.epa.gov/apex/cimc/f?p=100:31::::31,0:P31_ID:134058",,,,,https://ofmpub.epa.gov/apex/cimc/f?p=CIMC:REPOWER:::::P6_REFERENCE:,https://ofmpub.epa.gov/frs_public2/fii_query_detail.disp_program_facility?p_registry_id=110070258566,https://ofmpub.epa.gov/apex/cimcf?p=CIMC:MAP:::::P71_GEOSEARCH:34.49837 -82.64906,34.49873,-82.64912,census
CONE MILL,3335 BUNCOMBE ROAD,GREENVILLE,SC,29602,GREENVILLE,,"https://ofmpub.epa.gov/apex/cimc/f?p=100:31::::31,0:P31_ID:106763",,,,,https://ofmpub.epa.gov/apex/cimc/f?p=CIMC:REPOWER:::::P6_REFERENCE:31899,https://ofmpub.epa.gov/frs_public2/fii_query_detail.disp_program_facility?p_registry_id=110040217459,https://ofmpub.epa.gov/apex/cimcf?p=CIMC:MAP:::::P71_GEOSEARCH:34.8892 -82.42457,34.86322,-82.4090915,osm
CONESTEE FOUNDATION,750 FEET WEST OF CONESTEE ROAD,GREENVILLE,SC,29605,GREENVILLE,,"https://ofmpub.epa.gov/apex/cimc/f?p=100:31::::31,0:P31_ID:223561",,,,,https://ofmpub.epa.gov/apex/cimc/f?p=CIMC:REPOWER:::::P6_REFERENCE:33775,https://ofmpub.epa.gov/frs_public2/fii_query_detail.disp_program_facility?p_registry_id=110070004538,https://ofmpub.epa.gov/apex/cimcf?p=CIMC:MAP:::::P71_GEOSEARCH:34.768749 -82.352484,,,osm
COOK STREET LANDFILL (SUMTER INERT),P.O. BOX 1449,SUMTER,SC,29161,SUMTER,,"https://ofmpub.epa.gov/apex/cimc/f?p=100:31::::31,0:P31_ID:18241",,,,,https://ofmpub.epa.gov/apex/cimc/f?p=CIMC:REPOWER:::::P6_REFERENCE:30490,https://ofmpub.epa.gov/frs_public2/fii_query_detail.disp_program_facility?p_registry_id=110038701973,https://ofmpub.epa.gov/apex/cimcf?p=CIMC:MAP:::::P71_GEOSEARCH:33.9069 -80.3588,,,osm
CORNER OF HAYWOOD AND HALTON RDS.,CORNER OF HAYWOOD AND HALTON RDS.,GREENVILLE,SC,29607,GREENVILLE COUNTY,,"https://ofmpub.epa.gov/apex/cimc/f?p=100:31::::31,0:P31_ID:199161",,,,,https://ofmpub.epa.gov/apex/cimc/f?p=CIMC:REPOWER:::::P6_REFERENCE:,https://ofmpub.epa.gov/frs_public2/fii_query_detail.disp_program_facility?p_registry_id=110070247850,https://ofmpub.epa.gov/apex/cimcf?p=CIMC:MAP:::::P71_GEOSEARCH:34.835586 -82.345161,,,osm
COTTON FACTORY,300 CHATAM AVENUE,ROCK HILL,SC,29730,YORK,,"https://ofmpub.epa.gov/apex/cimc/f?p=100:31::::31,0:P31_ID:15125",,,,,https://ofmpub.epa.gov/apex/cimc/f?p=CIMC:REPOWER:::::P6_REFERENCE:30426,https://ofmpub.epa.gov/frs_public2/fii_query_detail.disp_program_facility?p_registry_id=110060913230,https://ofmpub.epa.gov/apex/cimcf?p=CIMC:MAP:::::P71_GEOSEARCH:34.92797 -81.02687,,,osm
COUNCIL ON AGING,159 MORGAN STREET SW,AIKEN,SC,29801,,,"https://ofmpub.epa.gov/apex/cimc/f?p=100:31::::31,0:P31_ID:243249",,,,,,,https://ofmpub.epa.gov/apex/cimcf?p=CIMC:MAP:::::P71_GEOSEARCH:33.56262 -81.719129,33.565376,-81.729004,census
CREASON BUILDING,1247 SUMTER STREET,COLUMBIA,SC,29201,RICHLAND,,"https://ofmpub.epa.gov/apex/cimc/f?p=100:31::::31,0:P31_ID:133944",,,,,https://ofmpub.epa.gov/apex/cimc/f?p=CIMC:REPOWER:::::P6_REFERENCE:32456,https://ofmpub.epa.gov/frs_public2/fii_query_detail.disp_program_facility?p_registry_id=110045010983,https://ofmpub.epa.gov/apex/cimcf?p=CIMC:MAP:::::P71_GEOSEARCH:34.002422 -81.032211,34.00242,-81.03221,census
CSX,297 W. MAIN STREET,SPARTANBURG,SC,29306,SPARTANBURG,,"https://ofmpub.epa.gov/apex/cimc/f?p=100:31::::31,0:P31_ID:134902",,,,,https://ofmpub.epa.gov/apex/cimc/f?p=CIMC:REPOWER:::::P6_REFERENCE:32503,https://ofmpub.epa.gov/frs_public2/fii_query_detail.disp_program_facility?p_registry_id=110044214285,https://ofmpub.epa.gov/apex/cimcf?p=CIMC:MAP:::::P71_GEOSEARCH:34.947663 -81.937472,34.991856,-81.83908,census
CSX RAIL LINE/SWAMP RABBIT,UNKNOWN,GREENVILLE,SC,29601,GREENVILLE,,"https://ofmpub.epa.gov/apex/cimc/f?p=100:31::::31,0:P31_ID:14772",,,,,https://ofmpub.epa.gov/apex/cimc/f?p=CIMC:REPOWER:::::P6_REFERENCE:30414,https://ofmpub.epa.gov/frs_public2/fii_query_detail.disp_program_facility?p_registry_id=110039546774,https://ofmpub.epa.gov/apex/cimcf?p=CIMC:MAP:::::P71_GEOSEARCH:34.84803 -82.400238,34.8487299,-82.4040922,osm
CURTIS YOUNG PROPERTY,503 DARTMOUTH ST,COLUMBIA,SC,29203,RICHLAND,,"https://ofmpub.epa.gov/apex/cimc/f?p=100:31::::31,0:P31_ID:107181",,,,,https://ofmpub.epa.gov/apex/cimc/f?p=CIMC:REPOWER:::::P6_REFERENCE:31904,https://ofmpub.epa.gov/frs_public2/fii_query_detail.disp_program_facility?p_registry_id=110043424862,https://ofmpub.epa.gov/apex/cimcf?p=CIMC:MAP:::::P71_GEOSEARCH:34.051744 -81.0453,34.05172,-81.04526,census
CURTISS-WRIGHT HANGER,AIRPORT BOULEVARD,COLUMBIA,SC,29205,RICHLAND,,"https://ofmpub.epa.gov/apex/cimc/f?p=100:31::::31,0:P31_ID:133557",,,,,https://ofmpub.epa.gov/apex/cimc/f?p=CIMC:REPOWER:::::P6_REFERENCE:32452,https://ofmpub.epa.gov/frs_public2/fii_query_detail.disp_program_facility?p_registry_id=110045010545,https://ofmpub.epa.gov/apex/cimcf?p=CIMC:MAP:::::P71_GEOSEARCH:33.97544 -81.00328,33.9778511,-81.0015119,osm
"DEWEY DUCKETT, JR.",5105 MONTICELLO ROAD,COLUMBIA,SC,29203,RICHLAND,,"https://ofmpub.epa.gov/apex/cimc/f?p=100:31::::31,0:P31_ID:114901",,,,,https://ofmpub.epa.gov/apex/cimc/f?p=CIMC:REPOWER:::::P6_REFERENCE:32099,https://ofmpub.epa.gov/frs_public2/fii_query_detail.disp_program_facility?p_registry_id=110043082473,https://ofmpub.epa.gov/apex/cimcf?p=CIMC:MAP:::::P71_GEOSEARCH:34.0508 -81.04466,34.05086,-81.04466,census
DICKS MOTOR SERVICE,201 N MAIN ST,ALLENDALE,SC,29810,ALLENDALE,,"https://ofmpub.epa.gov/apex/cimc/f?p=100:31::::31,0:P31_ID:71661",,,,,https://ofmpub.epa.gov/apex/cimc/f?p=CIMC:REPOWER:::::P6_REFERENCE:30923,https://ofmpub.epa.gov/frs_public2/fii_query_detail.disp_program_facility?p_registry_id=110017014130,https://ofmpub.epa.gov/apex/cimcf?p=CIMC:MAP:::::P71_GEOSEARCH:33.00916 -81.30747,33.033735,-81.23482,osm
DILMAR OIL PROPERTY,"100, 104, AND 108 MAIN STREET",DILLON,SC,29536,DILLON,,"https://ofmpub.epa.gov/apex/cimc/f?p=100:31::::31,0:P31_ID:125341",,,,,https://ofmpub.epa.gov/apex/cimc/f?p=CIMC:REPOWER:::::P6_REFERENCE:,https://ofmpub.epa.gov/frs_public2/fii_query_detail.disp_program_facility?p_registry_id=110070258561,https://ofmpub.epa.gov/apex/cimcf?p=CIMC:MAP:::::P71_GEOSEARCH:34.416759 -79.371705,,,osm
DRAKE ST. PROPERTY,"1002, 1030 DRAKE ST.",COLUMBIA,SC,29209,RICHLAND,,"https://ofmpub.epa.gov/apex/cimc/f?p=100:31::::31,0:P31_ID:67361",,,,,https://ofmpub.epa.gov/apex/cimc/f?p=CIMC:REPOWER:::::P6_REFERENCE:30872,https://ofmpub.epa.gov/frs_public2/fii_query_detail.disp_program_facility?p_registry_id=110038718000,https://ofmpub.epa.gov/apex/cimcf?p=CIMC:MAP:::::P71_GEOSEARCH:33.982717 -80.957611,33.9825094720916,-80.9584332270375,osm
DUGGAN TRUST PROPERTY,ALSTON AVENUE,NORTH CHARLESTON,SC,29405,CHARLESTON,,"https://ofmpub.epa.gov/apex/cimc/f?p=100:31::::31,0:P31_ID:137562",,,,,https://ofmpub.epa.gov/apex/cimc/f?p=CIMC:REPOWER:::::P6_REFERENCE:32573,https://ofmpub.epa.gov/frs_public2/fii_query_detail.disp_program_facility?p_registry_id=110045013105,https://ofmpub.epa.gov/apex/cimcf?p=CIMC:MAP:::::P71_GEOSEARCH:32.91884 -80.0383,32.9151629,-80.0391931,osm
EAST NORTH STREET,EAST NORTH ST.,GREENVILLE,SC,29607,GREENVILLE COUNTY,,"https://ofmpub.epa.gov/apex/cimc/f?p=100:31::::31,0:P31_ID:206744",,,,,https://ofmpub.epa.gov/apex/cimc/f?p=CIMC:REPOWER:::::P6_REFERENCE:,https://ofmpub.epa.gov/frs_public2/fii_query_detail.disp_program_facility?p_registry_id=110070247858,https://ofmpub.epa.gov/apex/cimcf?p=CIMC:MAP:::::P71_GEOSEARCH:34.8549 -82.3841,34.861167,-82.37132,osm
EASTER SEALS BUILDING,3020 FARROW ROAD,COLUMBIA,SC,29203,RICHLAND,,"https://ofmpub.epa.gov/apex/cimc/f?p=100:31::::31,0:P31_ID:122263",,,,,https://ofmpub.epa.gov/apex/cimc/f?p=CIMC:REPOWER:::::P6_REFERENCE:32163,https://ofmpub.epa.gov/frs_public2/fii_query_detail.disp_program_facility?p_registry_id=110043637188,https://ofmpub.epa.gov/apex/cimcf?p=CIMC:MAP:::::P71_GEOSEARCH:34.028035 -81.026704,34.028896,-81.02598,census
ELKAY INDUSTRIES,DICEY CREEK ROAD,CAMDEN,SC,29020,KERSHAW,,"https://ofmpub.epa.gov/apex/cimc/f?p=100:31::::31,0:P31_ID:10365",,,,,https://ofmpub.epa.gov/apex/cimc/f?p=CIMC:REPOWER:::::P6_REFERENCE:29972,https://ofmpub.epa.gov/frs_public2/fii_query_detail.disp_program_facility?p_registry_id=110015336992,https://ofmpub.epa.gov/apex/cimcf?p=CIMC:MAP:::::P71_GEOSEARCH:34.271517 -80.568229,34.269433,-80.602891,osm
EMMANUEL CHURCH,1723 BLUE RIDGE TERRACE,COLUMBIA,SC,29203,RICHLAND,,"https://ofmpub.epa.gov/apex/cimc/f?p=100:31::::31,0:P31_ID:130261",,,,,https://ofmpub.epa.gov/apex/cimc/f?p=CIMC:REPOWER:::::P6_REFERENCE:32396,https://ofmpub.epa.gov/frs_public2/fii_query_detail.disp_program_facility?p_registry_id=110043637767,https://ofmpub.epa.gov/apex/cimcf?p=CIMC:MAP:::::P71_GEOSEARCH:34.08894 -81.04846,34.0216555,-81.0230189,osm
EXPRESS CAB PROPERTY,1836 MEETING STREET ROAD,CHARLESTON,SC,29405,CHARLESTON,,"https://ofmpub.epa.gov/apex/cimc/f?p=100:31::::31,0:P31_ID:163962",,,,,https://ofmpub.epa.gov/apex/cimc/f?p=CIMC:REPOWER:::::P6_REFERENCE:33047,https://ofmpub.epa.gov/frs_public2/fii_query_detail.disp_program_facility?p_registry_id=110059721314,https://ofmpub.epa.gov/apex/cimcf?p=CIMC:MAP:::::P71_GEOSEARCH:32.828761 -79.952117,32.828644,-79.95208,census
FAIRFAX COMMUNITY BUILDING,635 ALLENDALE FAIRFAX HIGHWAY,FAIRFAX,SC,29827,ALLENDALE,,"https://ofmpub.epa.gov/apex/cimc/f?p=100:31::::31,0:P31_ID:240474",,,,,https://ofmpub.epa.gov/apex/cimc/f?p=CIMC:REPOWER:::::P6_REFERENCE:,https://ofmpub.epa.gov/frs_public2/fii_query_detail.disp_program_facility?p_registry_id=110070605144,https://ofmpub.epa.gov/apex/cimcf?p=CIMC:MAP:::::P71_GEOSEARCH:32.960935 -81.240209,32.961063,-81.24026,census
FAIRFAX DIMENSIONS,HIGHWAY 278,FAIRFAX,SC,29827,ALLENDALE,,"https://ofmpub.epa.gov/apex/cimc/f?p=100:31::::31,0:P31_ID:237324",,,,,https://ofmpub.epa.gov/apex/cimc/f?p=CIMC:REPOWER:::::P6_REFERENCE:,https://ofmpub.epa.gov/frs_public2/fii_query_detail.disp_program_facility?p_registry_id=110070789446,https://ofmpub.epa.gov/apex/cimcf?p=CIMC:MAP:::::P71_GEOSEARCH:32.958733 -81.236728,32.95883,-81.236972,osm
FAIRFOREST WAY PROPERTIES,475 FAIRFOREST WAY,GREENVILLE,SC,29673,GREENVILLE,,"https://ofmpub.epa.gov/apex/cimc/f?p=100:31::::31,0:P31_ID:146621",,,,,https://ofmpub.epa.gov/apex/cimc/f?p=CIMC:REPOWER:::::P6_REFERENCE:32743,https://ofmpub.epa.gov/frs_public2/fii_query_detail.disp_program_facility?p_registry_id=110054365227,https://ofmpub.epa.gov/apex/cimcf?p=CIMC:MAP:::::P71_GEOSEARCH:34.787272 -82.349824,34.7866819,-82.3487158,osm
FAIRGROUNDS,575 & 581 FAIRGROUNDS ROAD,SPARTANBURG,SC,29303,SPARTANBURG,,"https://ofmpub.epa.gov/apex/cimc/f?p=100:31::::31,0:P31_ID:110081",,,,,https://ofmpub.epa.gov/apex/cimc/f?p=CIMC:REPOWER:::::P6_REFERENCE:31965,https://ofmpub.epa.gov/frs_public2/fii_query_detail.disp_program_facility?p_registry_id=110044214999,https://ofmpub.epa.gov/apex/cimcf?p=CIMC:MAP:::::P71_GEOSEARCH:34.960569 -81.953552,34.9584554735857,-81.9531173835529,osm
FARMER'S GRAIN & SUPPLY DEVELOPMENT TRACT,437 BURTON'S FERRY HIGHWAY,ULMER,SC,29849,ALLENDALE,,"https://ofmpub.epa.gov/apex/cimc/f?p=100:31::::31,0:P31_ID:240434",,,,,https://ofmpub.epa.gov/apex/cimc/f?p=CIMC:REPOWER:::::P6_REFERENCE:,https://ofmpub.epa.gov/frs_public2/fii_query_detail.disp_program_facility?p_registry_id=110070605123,https://ofmpub.epa.gov/apex/cimcf?p=CIMC:MAP:::::P71_GEOSEARCH:33.096079 -81.208904,33.0963,-81.20993,census
FEED AND SEED SITE,706 E. WHITE STREET,ROCK HILL,SC,29731,CHESTER,,"https://ofmpub.epa.gov/apex/cimc/f?p=100:31::::31,0:P31_ID:74701",,,,,https://ofmpub.epa.gov/apex/cimc/f?p=CIMC:REPOWER:::::P6_REFERENCE:30953,https://ofmpub.epa.gov/frs_public2/fii_query_detail.disp_program_facility?p_registry_id=110038760070,https://ofmpub.epa.gov/apex/cimcf?p=CIMC:MAP:::::P71_GEOSEARCH:34.921774 -81.013928,34.9216704969796,-81.0139072368283,osm
FEWELL PROPERTY,121 WHITE STREET WEST,ROCK HILL,SC,29730,CHESTER,,"https://ofmpub.epa.gov/apex/cimc/f?p=100:31::::31,0:P31_ID:73061",,,,,https://ofmpub.epa.gov/apex/cimc/f?p=CIMC:REPOWER:::::P6_REFERENCE:30930,https://ofmpub.epa.gov/frs_public2/fii_query_detail.disp_program_facility?p_registry_id=110040478872,https://ofmpub.epa.gov/apex/cimcf?p=CIMC:MAP:::::P71_GEOSEARCH:34.92835 -81.02782,34.9281249183673,-81.0276982244898,osm
FLY ASH LANDFILL AT FORMER RIEGEL MILL,MILL STREET,WARE SHOALS,SC,29692,GREENWOOD,,"https://ofmpub.epa.gov/apex/cimc/f?p=100:31::::31,0:P31_ID:18261",,,,,https://ofmpub.epa.gov/apex/cimc/f?p=CIMC:REPOWER:::::P6_REFERENCE:30491,https://ofmpub.epa.gov/frs_public2/fii_query_detail.disp_program_facility?p_registry_id=110038748399,https://ofmpub.epa.gov/apex/cimcf?p=CIMC:MAP:::::P71_GEOSEARCH:34.39905 -82.24455,34.399048,-82.24454,osm
FORMER BC COMPONENTS,6071 ST. ANDREWS ROAD,COLUMBIA,SC,29212,LEXINGTON,,"https://ofmpub.epa.gov/apex/cimc/f?p=100:31::::31,0:P31_ID:18222",,,,,https://ofmpub.epa.gov/apex/cimc/f?p=CIMC:REPOWER:::::P6_REFERENCE:30489,https://ofmpub.epa.gov/frs_public2/fii_query_detail.disp_program_facility?p_registry_id=110038748380,https://ofmpub.epa.gov/apex/cimcf?p=CIMC:MAP:::::P71_GEOSEARCH:34.053598 -81.159622,34.050555,-81.1025904,osm
FORMER BEATTIE PLANT,700 NORTH WOODS DRIVE,FOUNTAIN INN,SC,29644,GREENVILLE,,"https://ofmpub.epa.gov/apex/cimc/f?p=100:31::::31,0:P31_ID:223521",,,,,https://ofmpub.epa.gov/apex/cimc/f?p=CIMC:REPOWER:::::P6_REFERENCE:33773,https://ofmpub.epa.gov/frs_public2/fii_query_detail.disp_program_facility?p_registry_id=110070004628,https://ofmpub.epa.gov/apex/cimcf?p=CIMC:MAP:::::P71_GEOSEARCH:34.69858 -82.23262,34.696365,-82.23022,census
FORMER BELK PROPERTY,125 HAMPTON AVENUE,KINGSTREE,SC,29556,WILLIAMSBURG,,"https://ofmpub.epa.gov/apex/cimc/f?p=100:31::::31,0:P31_ID:149968",,,,,https://ofmpub.epa.gov/apex/cimc/f?p=CIMC:REPOWER:::::P6_REFERENCE:32863,https://ofmpub.epa.gov/frs_public2/fii_query_detail.disp_program_facility?p_registry_id=110054625679,https://ofmpub.epa.gov/apex/cimcf?p=CIMC:MAP:::::P71_GEOSEARCH:33.66445 -79.82881,33.66476,-79.82892,census
FORMER BI-LO SHOPPING CENTER,1001 OLD RIVER ROAD,CAMDCEN,SC,29020,,,"https://ofmpub.epa.gov/apex/cimc/f?p=100:31::::31,0:P31_ID:244350",,,,,,,https://ofmpub.epa.gov/apex/cimcf?p=CIMC:MAP:::::P71_GEOSEARCH:34.244649 -80.616779,34.245033,-80.6174,census
FORMER BOBBIN MANUFACTURER,4 NEWLAND AVENUE,GREENVILLE,SC,29609,GREENVILLE,,"https://ofmpub.epa.gov/apex/cimc/f?p=100:31::::31,0:P31_ID:223481",,,,,https://ofmpub.epa.gov/apex/cimc/f?p=CIMC:REPOWER:::::P6_REFERENCE:33771,https://ofmpub.epa.gov/frs_public2/fii_query_detail.disp_program_facility?p_registry_id=110070004535,https://ofmpub.epa.gov/apex/cimcf?p=CIMC:MAP:::::P71_GEOSEARCH:34.88746 -82.40771,34.887302,-82.40739,census
FORMER BUTLER HIGH SCHOOL,1103 SOUTH 6TH STREET,HARTSVILLE,SC,29551,DARLINGTON COUNTY,,"https://ofmpub.epa.gov/apex/cimc/f?p=100:31::::31,0:P31_ID:131681",,,,,https://ofmpub.epa.gov/apex/cimc/f?p=CIMC:REPOWER:::::P6_REFERENCE:32419,https://ofmpub.epa.gov/frs_public2/fii_query_detail.disp_program_facility?p_registry_id=110043638007,https://ofmpub.epa.gov/apex/cimcf?p=CIMC:MAP:::::P71_GEOSEARCH:34.359332 -80.070283,34.3641411,-80.0714517,osm
FORMER CHERAW RECYCLING CENTER,61 ACL AVENUE,CHERAW,SC,29520,CHESTERFIELD,,"https://ofmpub.epa.gov/apex/cimc/f?p=100:31::::31,0:P31_ID:228142",,,,,https://ofmpub.epa.gov/apex/cimc/f?p=CIMC:REPOWER:::::P6_REFERENCE:33833,https://ofmpub.epa.gov/frs_public2/fii_query_detail.disp_program_facility?p_registry_id=110070164185,https://ofmpub.epa.gov/apex/cimcf?p=CIMC:MAP:::::P71_GEOSEARCH:34.692981 -79.87927,34.692966,-79.87921,census
FORMER CITY HALL PROPERTY,4900 LACROSS ROAD,NORTH CHARLESTON,SC,29406,CHARLESTON,,"https://ofmpub.epa.gov/apex/cimc/f?p=100:31::::31,0:P31_ID:150002",,,,,https://ofmpub.epa.gov/apex/cimc/f?p=CIMC:REPOWER:::::P6_REFERENCE:32865,https://ofmpub.epa.gov/frs_public2/fii_query_detail.disp_program_facility?p_registry_id=110054625697,https://ofmpub.epa.gov/apex/cimcf?p=CIMC:MAP:::::P71_GEOSEARCH:32.87938 -80.01373,32.879021,-80.013239,osm
FORMER COAL TIPPLE SITE,GREENLEAF ROAD,CHARLESTON,SC,29405,CHARLESTON,,"https://ofmpub.epa.gov/apex/cimc/f?p=100:31::::31,0:P31_ID:177223",,,,,https://ofmpub.epa.gov/apex/cimc/f?p=CIMC:REPOWER:::::P6_REFERENCE:33355,https://ofmpub.epa.gov/frs_public2/fii_query_detail.disp_program_facility?p_registry_id=110063009300,https://ofmpub.epa.gov/apex/cimcf?p=CIMC:MAP:::::P71_GEOSEARCH:32.82056 -79.95126,32.8225693,-79.9462119,osm
FORMER COMMERCIAL PRINTER,1433 POINSETT HIGHWAY,GREENVILLE,SC,29609,GREENVILLE COUNTY,,"https://ofmpub.epa.gov/apex/cimc/f?p=100:31::::31,0:P31_ID:222581",,,,,https://ofmpub.epa.gov/apex/cimc/f?p=CIMC:REPOWER:::::P6_REFERENCE:33762,https://ofmpub.epa.gov/frs_public2/fii_query_detail.disp_program_facility?p_registry_id=110070004515,https://ofmpub.epa.gov/apex/cimcf?p=CIMC:MAP:::::P71_GEOSEARCH:34.88627 -82.40524,34.8675808,-82.4044255,osm
FORMER DEE'S SERVICE STATION,3223 SPRUILL AVENUE,NORTH CHARLESTON,SC,29405,CHARLESTON,,"https://ofmpub.epa.gov/apex/cimc/f?p=100:31::::31,0:P31_ID:133504",,,,,https://ofmpub.epa.gov/apex/cimc/f?p=CIMC:REPOWER:::::P6_REFERENCE:32450,https://ofmpub.epa.gov/frs_public2/fii_query_detail.disp_program_facility?p_registry_id=110045010536,https://ofmpub.epa.gov/apex/cimcf?p=CIMC:MAP:::::P71_GEOSEARCH:32.856117 -79.968738,32.85645,-79.96917,census
FORMER DHEC BUILDING,124 EPPS STREET,LAKE CITY,SC,29560,FLORENCE,,"https://ofmpub.epa.gov/apex/cimc/f?p=100:31::::31,0:P31_ID:241560",,,,,https://ofmpub.epa.gov/apex/cimc/f?p=CIMC:REPOWER:::::P6_REFERENCE:,https://ofmpub.epa.gov/frs_public2/fii_query_detail.disp_program_facility?p_registry_id=110070790036,https://ofmpub.epa.gov/apex/cimcf?p=CIMC:MAP:::::P71_GEOSEARCH:33.87174 -79.756937,33.87224,-79.75642,census
FORMER FOX THEATER,1607 MAIN STREET,COLUMBIA,SC,29201,RICHLAND,,"https://ofmpub.epa.gov/apex/cimc/f?p=100:31::::31,0:P31_ID:114221",,,,,https://ofmpub.epa.gov/apex/cimc/f?p=CIMC:REPOWER:::::P6_REFERENCE:32096,https://ofmpub.epa.gov/frs_public2/fii_query_detail.disp_program_facility?p_registry_id=110041720279,https://ofmpub.epa.gov/apex/cimcf?p=CIMC:MAP:::::P71_GEOSEARCH:34.0069 -81.03608,34.00683,-81.036,census
FORMER FOX THEATER (NICKLODEON),1607 MAIN STREET,COLUMBIA,SC,29201,RICHLAND,,"https://ofmpub.epa.gov/apex/cimc/f?p=100:31::::31,0:P31_ID:229342",,,,,https://ofmpub.epa.gov/apex/cimc/f?p=CIMC:REPOWER:::::P6_REFERENCE:33854,https://ofmpub.epa.gov/frs_public2/fii_query_detail.disp_program_facility?p_registry_id=110070117630,https://ofmpub.epa.gov/apex/cimcf?p=CIMC:MAP:::::P71_GEOSEARCH:34.0069 -81.03608,34.00683,-81.036,census
FORMER FREIGHT DEPOT PROPERTY,1911 SOUTH MAIN STREET,GREENWOOD,SC,29648,GREENWOOD,,"https://ofmpub.epa.gov/apex/cimc/f?p=100:31::::31,0:P31_ID:58861",,,,,https://ofmpub.epa.gov/apex/cimc/f?p=CIMC:REPOWER:::::P6_REFERENCE:30826,https://ofmpub.epa.gov/frs_public2/fii_query_detail.disp_program_facility?p_registry_id=110038758537,https://ofmpub.epa.gov/apex/cimcf?p=CIMC:MAP:::::P71_GEOSEARCH:34.16754 -82.14277,34.1903705,-82.1602772,osm
FORMER GARAGE SITE,910 S MAIN ST,DARLINGTON,SC,29532,DARLINGTON,,"https://ofmpub.epa.gov/apex/cimc/f?p=100:31::::31,0:P31_ID:126021",,,,,https://ofmpub.epa.gov/apex/cimc/f?p=CIMC:REPOWER:::::P6_REFERENCE:,https://ofmpub.epa.gov/frs_public2/fii_query_detail.disp_program_facility?p_registry_id=110070258560,https://ofmpub.epa.gov/apex/cimcf?p=CIMC:MAP:::::P71_GEOSEARCH:34.29208 -79.86341,34.291915,-79.863415,osm
FORMER GETTYS MIDDLE SCHOOL,105 STEWART DRIVE,EASLEY,SC,29641,PICKENS,,"https://ofmpub.epa.gov/apex/cimc/f?p=100:31::::31,0:P31_ID:242444",,,,,https://ofmpub.epa.gov/apex/cimc/f?p=CIMC:REPOWER:::::P6_REFERENCE:,https://ofmpub.epa.gov/frs_public2/fii_query_detail.disp_program_facility?p_registry_id=110070790002,https://ofmpub.epa.gov/apex/cimcf?p=CIMC:MAP:::::P71_GEOSEARCH:34.83011 -82.58322,34.8313008566537,-82.5823321746484,osm
FORMER GLOBE SERVICE STATION,1306 S MURRAY AVE,ANDERSON,SC,29624,ANDERSON,,"https://ofmpub.epa.gov/apex/cimc/f?p=100:31::::31,0:P31_ID:134070",,,,,https://ofmpub.epa.gov/apex/cimc/f?p=CIMC:REPOWER:::::P6_REFERENCE:,https://ofmpub.epa.gov/frs_public2/fii_query_detail.disp_program_facility?p_registry_id=110017034868,https://ofmpub.epa.gov/apex/cimcf?p=CIMC:MAP:::::P71_GEOSEARCH:34.492834 -82.649966,34.492737,-82.64997,census
FORMER GREEN PLAZA,205 PETE HOLLIS BLVD,GREENVILLE,SC,29602,GREENVILLE,,"https://ofmpub.epa.gov/apex/cimc/f?p=100:31::::31,0:P31_ID:235311",,,,,https://ofmpub.epa.gov/apex/cimc/f?p=CIMC:REPOWER:::::P6_REFERENCE:,https://ofmpub.epa.gov/frs_public2/fii_query_detail.disp_program_facility?p_registry_id=110070247627,https://ofmpub.epa.gov/apex/cimcf?p=CIMC:MAP:::::P71_GEOSEARCH:34.86181 -82.40737,34.861435,-82.40705,census
FORMER GREENWOOD MILLS FOUNDRY,122 FOUNDRY ROAD,GREENWOOD,SC,29648,GREENWOOD,,"https://ofmpub.epa.gov/apex/cimc/f?p=100:31::::31,0:P31_ID:58841",,,,,https://ofmpub.epa.gov/apex/cimc/f?p=CIMC:REPOWER:::::P6_REFERENCE:30825,https://ofmpub.epa.gov/frs_public2/fii_query_detail.disp_program_facility?p_registry_id=110038758528,https://ofmpub.epa.gov/apex/cimcf?p=CIMC:MAP:::::P71_GEOSEARCH:34.169295 -82.14269,34.16929,-82.14272,census
FORMER MAIN AND TAYLOR SHOES SITE,1614 MAIN STREET,COLUMBIA,SC,29201,RICHLAND,,"https://ofmpub.epa.gov/apex/cimc/f?p=100:31::::31,0:P31_ID:229343",,,,,https://ofmpub.epa.gov/apex/cimc/f?p=CIMC:REPOWER:::::P6_REFERENCE:33855,https://ofmpub.epa.gov/frs_public2/fii_query_detail.disp_program_facility?p_registry_id=110070117655,https://ofmpub.epa.gov/apex/cimcf?p=CIMC:MAP:::::P71_GEOSEARCH:34.00708 -81.03616,34.006924,-81.036026,census
FORMER MARGARINE FACTORY,1430 & 1434 POINSETT HWY,GREENVILLE,SC,29609,GREENVILLE,,"https://ofmpub.epa.gov/apex/cimc/f?p=100:31::::31,0:P31_ID:223401",,,,,https://ofmpub.epa.gov/apex/cimc/f?p=CIMC:REPOWER:::::P6_REFERENCE:33767,https://ofmpub.epa.gov/frs_public2/fii_query_detail.disp_program_facility?p_registry_id=110070004533,https://ofmpub.epa.gov/apex/cimcf?p=CIMC:MAP:::::P71_GEOSEARCH:34.886596 -82.404991,34.8855897237981,-82.4050624119196,osm
FORMER MCCORYS STORE BUILDING,1556 MAIN STREET,COLUMBIA,SC,29201,RICHLAND,,"https://ofmpub.epa.gov/apex/cimc/f?p=100:31::::31,0:P31_ID:229341",,,,,https://ofmpub.epa.gov/apex/cimc/f?p=CIMC:REPOWER:::::P6_REFERENCE:,https://ofmpub.epa.gov/frs_public2/fii_query_detail.disp_program_facility?p_registry_id=110043637632,https://ofmpub.epa.gov/apex/cimcf?p=CIMC:MAP:::::P71_GEOSEARCH:34.0064 -81.03587,34.006058,-81.035645,census
FORMER MCCORYS STORE BUILDING,1556 MAIN STREET,COLUMBIA,SC,29201,RICHLAND,,"https://ofmpub.epa.gov/apex/cimc/f?p=100:31::::31,0:P31_ID:129581",,,,,https://ofmpub.epa.gov/apex/cimc/f?p=CIMC:REPOWER:::::P6_REFERENCE:32392,https://ofmpub.epa.gov/frs_public2/fii_query_detail.disp_program_facility?p_registry_id=110043637632,https://ofmpub.epa.gov/apex/cimcf?p=CIMC:MAP:::::P71_GEOSEARCH:34.0064 -81.03587,34.006058,-81.035645,census
FORMER MIXSON SERVICE STATION,INTERSECTION OF US HIGHWAY 301 AND MIXSON STREET,ALLENDALE,SC,29810,ALLENDALE,,"https://ofmpub.epa.gov/apex/cimc/f?p=100:31::::31,0:P31_ID:240689",,,,,https://ofmpub.epa.gov/apex/cimc/f?p=CIMC:REPOWER:::::P6_REFERENCE:,https://ofmpub.epa.gov/frs_public2/fii_query_detail.disp_program_facility?p_registry_id=110070616039,https://ofmpub.epa.gov/apex/cimcf?p=CIMC:MAP:::::P71_GEOSEARCH:33.004804 -81.313678,,,osm
FORMER MIXSON SERVICE STATION,US 301 & MIXSON ST.,ALLENDALE,SC,29810,ALLENDALE,,"https://ofmpub.epa.gov/apex/cimc/f?p=100:31::::31,0:P31_ID:240269",,,,,https://ofmpub.epa.gov/apex/cimc/f?p=CIMC:REPOWER:::::P6_REFERENCE:,https://ofmpub.epa.gov/frs_public2/fii_query_detail.disp_program_facility?p_registry_id=110070671504,https://ofmpub.epa.gov/apex/cimcf?p=CIMC:MAP:::::P71_GEOSEARCH:33.004633 -81.313583,33.00478,-81.31372,census
FORMER NEWSOME CHEVROLET SITE,4013 WEST BELTLINE BOULEVARD,COLUMBIA,SC,29202,RICHLAND,,"https://ofmpub.epa.gov/apex/cimc/f?p=100:31::::31,0:P31_ID:146761",,,,,https://ofmpub.epa.gov/apex/cimc/f?p=CIMC:REPOWER:::::P6_REFERENCE:32751,https://ofmpub.epa.gov/frs_public2/fii_query_detail.disp_program_facility?p_registry_id=110054146946,https://ofmpub.epa.gov/apex/cimcf?p=CIMC:MAP:::::P71_GEOSEARCH:34.03667 -81.00874,33.9879857,-80.98294,osm
FORMER OAKLAND AVENUE STATION,104 OAKLAND AVENUE,ROCK HILL,SC,29730,YORK,,"https://ofmpub.epa.gov/apex/cimc/f?p=100:31::::31,0:P31_ID:31241",,,,,https://ofmpub.epa.gov/apex/cimc/f?p=CIMC:REPOWER:::::P6_REFERENCE:30580,https://ofmpub.epa.gov/frs_public2/fii_query_detail.disp_program_facility?p_registry_id=110038751758,https://ofmpub.epa.gov/apex/cimcf?p=CIMC:MAP:::::P71_GEOSEARCH:34.92983 -81.02389,34.930904,-81.02449,census
FORMER OFFICE BUILDING,113 EAST CHURCH STREET,SALUDA,SC,29138,SALUDA,,"https://ofmpub.epa.gov/apex/cimc/f?p=100:31::::31,0:P31_ID:238573",,,,,https://ofmpub.epa.gov/apex/cimc/f?p=CIMC:REPOWER:::::P6_REFERENCE:,https://ofmpub.epa.gov/frs_public2/fii_query_detail.disp_program_facility?p_registry_id=110070507862,https://ofmpub.epa.gov/apex/cimcf?p=CIMC:MAP:::::P71_GEOSEARCH:34.00161 -81.77146,34.0016,-81.77157,census
FORMER PICKENS RAIL DEPOT,124 RAILROAD STREET,PICKENS,SC,29671,PICKENS,,"https://ofmpub.epa.gov/apex/cimc/f?p=100:31::::31,0:P31_ID:227781",,,,,https://ofmpub.epa.gov/apex/cimc/f?p=CIMC:REPOWER:::::P6_REFERENCE:33830,https://ofmpub.epa.gov/frs_public2/fii_query_detail.disp_program_facility?p_registry_id=110070069107,https://ofmpub.epa.gov/apex/cimcf?p=CIMC:MAP:::::P71_GEOSEARCH:34.88372 -82.702454,34.88364,-82.70267,census
FORMER POE MILL,A STREET @ BUNCOMBE ROAD,GREENVILLE,SC,29609,GREENVILLE,,"https://ofmpub.epa.gov/apex/cimc/f?p=100:31::::31,0:P31_ID:223541",,,,,https://ofmpub.epa.gov/apex/cimc/f?p=CIMC:REPOWER:::::P6_REFERENCE:33774,https://ofmpub.epa.gov/frs_public2/fii_query_detail.disp_program_facility?p_registry_id=110070004537,https://ofmpub.epa.gov/apex/cimcf?p=CIMC:MAP:::::P71_GEOSEARCH:34.869457 -82.413736,34.8586445,-82.4046842,osm
FORMER PORTER STREET MANUFACTURING SITE,101 PORTER STREET,UNION,SC,29379,UNION,,"https://ofmpub.epa.gov/apex/cimc/f?p=100:31::::31,0:P31_ID:208161",,,,,https://ofmpub.epa.gov/apex/cimc/f?p=CIMC:REPOWER:::::P6_REFERENCE:33607,https://ofmpub.epa.gov/frs_public2/fii_query_detail.disp_program_facility?p_registry_id=110067367183,https://ofmpub.epa.gov/apex/cimcf?p=CIMC:MAP:::::P71_GEOSEARCH:34.70954 -81.6207,34.709663,-81.62013,census
FORMER RACO STATION,619 GERVAIS STREET AND 1209 WAYNE STREET,COLUMBIA,SC,29201,RICHLAND,,"https://ofmpub.epa.gov/apex/cimc/f?p=100:31::::31,0:P31_ID:130865",,,,,https://ofmpub.epa.gov/apex/cimc/f?p=CIMC:REPOWER:::::P6_REFERENCE:32406,https://ofmpub.epa.gov/frs_public2/fii_query_detail.disp_program_facility?p_registry_id=110043692475,https://ofmpub.epa.gov/apex/cimcf?p=CIMC:MAP:::::P71_GEOSEARCH:33.99872 -81.04159,33.99836,-81.04301,census
FORMER RACO STATION,619 GERVAIS STREET AND 1209 WAYNE STREET,COLUMBIA,SC,29201,RICHLAND,,"https://ofmpub.epa.gov/apex/cimc/f?p=100:31::::31,0:P31_ID:101161",,,,,https://ofmpub.epa.gov/apex/cimc/f?p=CIMC:REPOWER:::::P6_REFERENCE:31836,https://ofmpub.epa.gov/frs_public2/fii_query_detail.disp_program_facility?p_registry_id=110043692475,https://ofmpub.epa.gov/apex/cimcf?p=CIMC:MAP:::::P71_GEOSEARCH:33.99872 -81.04159,33.99836,-81.04301,census
FORMER RIZER FORD DEALERSHIP,114 NORTH WALTER STREET,WALTERBORO,SC,29488,COLLETON,,"https://ofmpub.epa.gov/apex/cimc/f?p=100:31::::31,0:P31_ID:237322",,,,,https://ofmpub.epa.gov/apex/cimc/f?p=CIMC:REPOWER:::::P6_REFERENCE:,https://ofmpub.epa.gov/frs_public2/fii_query_detail.disp_program_facility?p_registry_id=110070384790,https://ofmpub.epa.gov/apex/cimcf?p=CIMC:MAP:::::P71_GEOSEARCH:32.90231 -80.66628,32.903084,-80.66616,census
FORMER SDS MEDICAL WASTE INCINERATOR SITE,100 NIX STREET,HAMPTON,SC,29924,HAMPTON,,"https://ofmpub.epa.gov/apex/cimc/f?p=100:31::::31,0:P31_ID:67461",,,,,https://ofmpub.epa.gov/apex/cimc/f?p=CIMC:REPOWER:::::P6_REFERENCE:30874,https://ofmpub.epa.gov/frs_public2/fii_query_detail.disp_program_facility?p_registry_id=110038718359,https://ofmpub.epa.gov/apex/cimcf?p=CIMC:MAP:::::P71_GEOSEARCH:32.8783 -81.1088,32.871056,-81.09834,census
FORMER SHAW INDUSTRIES,890 REVOLUTIONARY TRAIL,FAIRFAX,SC,29810,ALLENDALE,,"https://ofmpub.epa.gov/apex/cimc/f?p=100:31::::31,0:P31_ID:168343",,,,,https://ofmpub.epa.gov/apex/cimc/f?p=CIMC:REPOWER:::::P6_REFERENCE:33146,https://ofmpub.epa.gov/frs_public2/fii_query_detail.disp_program_facility?p_registry_id=110067033953,https://ofmpub.epa.gov/apex/cimcf?p=CIMC:MAP:::::P71_GEOSEARCH:32.970077 -81.264907,32.9723671,-81.2753094,osm
FORMER SHAW INDUSTRIES SITE,3405 ALLENDALE FAIRFAX HIGHWAY,FAIRFAX,SC,29827,ALLLENDALE,,"https://ofmpub.epa.gov/apex/cimc/f?p=100:31::::31,0:P31_ID:137450",,,,,https://ofmpub.epa.gov/apex/cimc/f?p=CIMC:REPOWER:::::P6_REFERENCE:32564,https://ofmpub.epa.gov/frs_public2/fii_query_detail.disp_program_facility?p_registry_id=110059657045,https://ofmpub.epa.gov/apex/cimcf?p=CIMC:MAP:::::P71_GEOSEARCH:32.98583 -81.27611,32.984776,-81.27471,census
FORMER SPRINGS INDUSTRIES MILL,ON KERSHAW CAMDEN HIGHWAY (US HIGHWAY 521) TO THE,KERSHAW,SC,29067,,,"https://ofmpub.epa.gov/apex/cimc/f?p=100:31::::31,0:P31_ID:242876",,,,,,,https://ofmpub.epa.gov/apex/cimcf?p=CIMC:MAP:::::P71_GEOSEARCH:34.5483 -80.580649,,,osm
FORMER SPRINGSTEEN PLANT PROPERTY,236 GADSDEN STREET,CHESTER,SC,29706,CHESTER,,"https://ofmpub.epa.gov/apex/cimc/f?p=100:31::::31,0:P31_ID:107061",,,,,https://ofmpub.epa.gov/apex/cimc/f?p=CIMC:REPOWER:::::P6_REFERENCE:31901,https://ofmpub.epa.gov/frs_public2/fii_query_detail.disp_program_facility?p_registry_id=110040217468,https://ofmpub.epa.gov/apex/cimcf?p=CIMC:MAP:::::P71_GEOSEARCH:34.7049 -81.20605,34.705006,-81.20712,census
FORMER TIRE REPAIR FACILITY,1431 POINSETT HWY,GREENVILLE,SC,29609,GREENVILLE,,"https://ofmpub.epa.gov/apex/cimc/f?p=100:31::::31,0:P31_ID:223441",,,,,https://ofmpub.epa.gov/apex/cimc/f?p=CIMC:REPOWER:::::P6_REFERENCE:33769,https://ofmpub.epa.gov/frs_public2/fii_query_detail.disp_program_facility?p_registry_id=110070004534,https://ofmpub.epa.gov/apex/cimcf?p=CIMC:MAP:::::P71_GEOSEARCH:34.88628 -82.40524,34.8675808,-82.4044255,osm
FORMER WELLINGTON LEISURE PRODUCTS,300 OFFICE STREET,JONESVILLE,SC,29353,UNION,,"https://ofmpub.epa.gov/apex/cimc/f?p=100:31::::31,0:P31_ID:56341",,,,,https://ofmpub.epa.gov/apex/cimc/f?p=CIMC:REPOWER:::::P6_REFERENCE:30787,https://ofmpub.epa.gov/frs_public2/fii_query_detail.disp_program_facility?p_registry_id=110038756842,https://ofmpub.epa.gov/apex/cimcf?p=CIMC:MAP:::::P71_GEOSEARCH:34.8352 -81.68569,34.8344619,-81.6851463,osm
FORMER WILLIAMS COTTON WAREHOUSE,122 SOUTHERN STREET,ROCK HILL,SC,29730,CHESTER,,"https://ofmpub.epa.gov/apex/cimc/f?p=100:31::::31,0:P31_ID:93581",,,,,https://ofmpub.epa.gov/apex/cimc/f?p=CIMC:REPOWER:::::P6_REFERENCE:31715,https://ofmpub.epa.gov/frs_public2/fii_query_detail.disp_program_facility?p_registry_id=110040478907,https://ofmpub.epa.gov/apex/cimcf?p=CIMC:MAP:::::P71_GEOSEARCH:34.92823 -81.02434,34.92847,-81.02483,census
FORMER WOODSIDE MILL PROPERTY,NORTH 6TH STREET,GREENVILLE,SC,29611,GREENVILLE,,"https://ofmpub.epa.gov/apex/cimc/f?p=100:31::::31,0:P31_ID:227721",,,,,https://ofmpub.epa.gov/apex/cimc/f?p=CIMC:REPOWER:::::P6_REFERENCE:33829,https://ofmpub.epa.gov/frs_public2/fii_query_detail.disp_program_facility?p_registry_id=110070117638,https://ofmpub.epa.gov/apex/cimcf?p=CIMC:MAP:::::P71_GEOSEARCH:34.85633 -82.42475,34.8563361,-82.4247852,osm
FURMAN HALL PROPERTY,100 FURMAN HALL ROAD,GREENVILLE,SC,29609,GREENVILLE COUNTY,,"https://ofmpub.epa.gov/apex/cimc/f?p=100:31::::31,0:P31_ID:177867",,,,,https://ofmpub.epa.gov/apex/cimc/f?p=CIMC:REPOWER:::::P6_REFERENCE:33373,https://ofmpub.epa.gov/frs_public2/fii_query_detail.disp_program_facility?p_registry_id=110067153573,https://ofmpub.epa.gov/apex/cimcf?p=CIMC:MAP:::::P71_GEOSEARCH:34.88163 -82.4037,34.881393,-82.4039845,osm
GARDNER PROPERTY,1007 WEST DEKALB STREET,CAMDEN,SC,29020,,,"https://ofmpub.epa.gov/apex/cimc/f?p=100:31::::31,0:P31_ID:244356",,,,,,,https://ofmpub.epa.gov/apex/cimcf?p=CIMC:MAP:::::P71_GEOSEARCH:34.24569 -80.61669,34.245773,-80.61632,census
GARNERS FERRY ROAD PROPERTIES,11315 AND 11325 GARNERS FERRY ROAD,EASTOVER,SC,29044,RICHLAND,,"https://ofmpub.epa.gov/apex/cimc/f?p=100:31::::31,0:P31_ID:127741",,,,,https://ofmpub.epa.gov/apex/cimc/f?p=CIMC:REPOWER:::::P6_REFERENCE:32361,https://ofmpub.epa.gov/frs_public2/fii_query_detail.disp_program_facility?p_registry_id=110061014414,https://ofmpub.epa.gov/apex/cimcf?p=CIMC:MAP:::::P71_GEOSEARCH:33.941219 -80.724037,,,osm
GARRET'S SERVICE STATION PROPERTY,508 CHURCH STREET,LAURENS,SC,29360,LAURENS,,"https://ofmpub.epa.gov/apex/cimc/f?p=100:31::::31,0:P31_ID:11963",,,,,https://ofmpub.epa.gov/apex/cimc/f?p=CIMC:REPOWER:::::P6_REFERENCE:30100,https://ofmpub.epa.gov/frs_public2/fii_query_detail.disp_program_facility?p_registry_id=110039555077,https://ofmpub.epa.gov/apex/cimcf?p=CIMC:MAP:::::P71_GEOSEARCH:34.506177 -82.024261,34.50625,-82.024376,census
GERVAIS ST. PROPERTY,912 GERVAIS ST.,COLUMBIA,SC,29201,RICHLAND COUNTY,,"https://ofmpub.epa.gov/apex/cimc/f?p=100:31::::31,0:P31_ID:111157",,,,,https://ofmpub.epa.gov/apex/cimc/f?p=CIMC:REPOWER:::::P6_REFERENCE:32031,https://ofmpub.epa.gov/frs_public2/fii_query_detail.disp_program_facility?p_registry_id=110070068441,https://ofmpub.epa.gov/apex/cimcf?p=CIMC:MAP:::::P71_GEOSEARCH:33.999768 -81.03817,33.99984,-81.038246,census
GIVENS PROPERTY,119 WHITE STREET WEST,ROCK HILL,SC,29730,CHESTER,,"https://ofmpub.epa.gov/apex/cimc/f?p=100:31::::31,0:P31_ID:73041",,,,,https://ofmpub.epa.gov/apex/cimc/f?p=CIMC:REPOWER:::::P6_REFERENCE:30929,https://ofmpub.epa.gov/frs_public2/fii_query_detail.disp_program_facility?p_registry_id=110040478863,https://ofmpub.epa.gov/apex/cimcf?p=CIMC:MAP:::::P71_GEOSEARCH:34.92822 -81.0277,34.9280943265306,-81.0276691020408,osm
