site_name,epa_id,city,county,state,zip_code,site_location,latitude,longitude,region,npl_status,superfund_alternative_agreement,federal_facility,operable_unit_number,sequence_id,decision_document_type,actual_completion_date,fiscal_year,media,contaminant_name,geometry,geoid,INTPTLAT,INTPTLON
ADMIRAL HOME APPLIANCES,SCD047563614,WILLISTON,BARNWELL,SC,29853,3330 CRANE WAY,,,4,Not on the NPL,Y,N,1,1,Record of Decision,9/28/06,2006,Groundwater,"1,1-DICHLOROETHENE",-81.398875|33.39387,45011970100,+33.3910823,-081.3942081
AQUA-TECH ENVIRONMENTAL INC (GROCE LABS),SCD058754789,GREER,SPARTANBURG,SC,29651,340 Robinson Road,34.9328,-82.1725,4,Currently on the Final NPL,N,N,1,1,Record of Decision,9/30/03,2003,Groundwater,"1,1,2,2-TETRACHLOROETHANE",-82.1725|34.9328,45083023202,+34.9056795,-082.1772299
BEAUNIT CORP. (CIRCULAR KNIT & DYEING PLANT),SCD000447268,FOUNTAIN INN,GREENVILLE,SC,29644,206 GEORGIA AVE,34.698061,-82.216111,4,Currently on the Final NPL,N,N,1,1,Record of Decision,9/29/95,1995,Groundwater,2-METHYLNAPHTHALENE,-82.19889996|34.6912995,45045003101,+34.7043385,-082.2045941
BREWER GOLD MINE,SCD987577913,JEFFERSON,CHESTERFIELD,SC,29718,299 Miller Street,34.652194,-80.411472,4,Currently on the Final NPL,N,N,1,2,Record of Decision,9/30/14,2014,Groundwater,ALUMINUM,-80.3895397|34.6498886,45025950200,+34.6454671,-080.3337693
"CAROLAWN, INC.",SCD980558316,FORT LAWN,CHESTER,SC,29714,5602 Ponderosa Street,34.686111,-80.94305,4,Currently on the Final NPL,N,N,1,1,Record of Decision,9/27/89,1989,Groundwater,"1,1,1-TRICHLOROETHANE",-80.90228699|34.7007225,45023020800,+34.7511502,-080.9358989
ELMORE WASTE DISPOSAL,SCD980839542,GREER,SPARTANBURG,SC,29651,107 South Main Street,34.935905,-82.216599,4,Currently on the Final NPL,N,N,1,1,Record of Decision,4/26/93,1993,Groundwater,"1,1,1-TRICHLOROETHANE",-82.2272119|34.9381361,45045002505,+34.9340064,-082.2349844
GEIGER (C & M OIL),SCD980711279,HOLLYWOOD,CHARLESTON,SC,29449,162 Baptist Hill Road,32.773611,-80.159161,4,Deleted from the Final NPL,N,N,1,1,ROD Amendment,7/13/93,1993,Groundwater,CHROMIUM,-80.2417651|32.7343442,45019002502,+32.7290527,-080.2269830
GOLDEN STRIP SEPTIC TANK SERVICE,SCD980799456,SIMPSONVILLE,GREENVILLE,SC,29681,117 Southeast Main Street,34.785,-82.2466,4,Deleted from the Final NPL,N,N,1,1,Record of Decision,9/12/91,1991,Soil,"1,1,1-TRICHLOROETHANE",-82.2542834|34.7370639,45045003011,+34.7317039,-082.2349019
HELENA CHEMICAL CO. LANDFILL,SCD058753971,FAIRFAX,ALLENDALE,SC,29827,Highway 321 S,,-81.239,4,Currently on the Final NPL,N,N,1,1,ROD Amendment,9/1/95,1995,Soil,ALDRIN,-81.2372124|32.9585379,45005970400,+32.8745690,-081.3241455
INDEPENDENT NAIL CO.,SCD004773644,BEAUFORT,BEAUFORT,SC,29902,40 Shanklin Road,32.466389,-80.741111,4,Deleted from the Final NPL,N,N,1,1,Explanation of Significant Differences,11/1/93,1994,Soil,CADMIUM,-80.6698286|32.4315813,45013000600,+32.4494075,-080.6875512
INTERNATIONAL MINERALS AND CHEMICALS (IMC),SCD003350493,SPARTANBURG,SPARTANBURG,SC,29302,515 North Street Ext,,,4,Not on the NPL,Y,N,1,1,Record of Decision,8/25/14,2014,Groundwater,"2,4-DINITROTOLUENE",-81.9320157|34.9498007,45083021200,+34.9509248,-081.9167596
KALAMA SPECIALTY CHEMICALS,SCD094995503,BEAUFORT,BEAUFORT,SC,29902,3090 Trask Parkway,32.4734,-80.7401,4,Currently on the Final NPL,N,N,1,1,Record of Decision,9/28/93,1993,Groundwater,"1,1-DICHLOROETHENE",-80.6698286|32.4315813,45013000600,+32.4494075,-080.6875512
"KOPPERS CO., INC. (CHARLESTON PLANT)",SCD980310239,CHARLESTON,CHARLESTON,SC,29405,40 Warren Street,32.822083,-79.958333,4,Currently on the Final NPL,N,N,1,1,Record of Decision,3/29/95,1995,Sediment,ARSENIC,-79.9402728|32.7876012,45019000700,+32.7893794,-079.9385460
"LEONARD CHEMICAL CO., INC.",SCD991279324,ROCK HILL,YORK,SC,29704,5080 Cureton Ferry Road,34.851669,-80.904169,4,Currently on the Final NPL,N,N,1,1,Explanation of Significant Differences,2/13/03,2003,Groundwater,"1,1,2-TRICHLOROETHANE",-81.0250784|34.9248667,45091060501,+34.9325443,-081.0382008
LEXINGTON COUNTY LANDFILL AREA,SCD980558043,CAYCE,LEXINGTON,SC,29033,1959 Middleton Street,33.919581,-81.074169,4,Currently on the Final NPL,N,N,1,1,Record of Decision,9/29/94,1994,Groundwater,"1,1-DICHLOROETHENE",-81.0739827|33.9657091,45063020202,+33.9592231,-081.0781384
LYMAN DYEING AND FINISHING,SCD987584653,LYMAN,SPARTANBURG,SC,29365,17 Spartanburg Road,,,4,Not on the NPL,Y,N,1,1,Record of Decision,9/29/09,2009,Soil,ARSENIC,-82.1273312|34.9481741,45083023102,+34.9459973,-082.1019723
MACALLOY CORPORATION,SCD003360476,NORTH CHARLESTON,CHARLESTON,SC,29405,1800 Pittsburgh Avenue,32.838056,-79.951194,4,Currently on the Final NPL,N,N,1,1,Record of Decision,8/21/02,2002,Groundwater,ANTIMONY,-80.0629982|32.9131295,45019003108,+32.9160676,-080.0723760
MEDLEY FARM DRUM DUMP,SCD980558142,GAFFNEY,CHEROKEE,SC,29340,198 East Burford Street,34.9805,-81.6685,4,Currently on the Final NPL,N,N,1,1,ROD Amendment,8/15/12,2012,Groundwater,"1,1,1-TRICHLOROETHANE",-81.6498195|35.0717945,45021970201,+35.0819573,-081.7015857
"PALMETTO RECYCLING, INC.",SCD037398120,COLUMBIA,RICHLAND,SC,29203,531 Koon Store Road,34.1228,-81.0117,4,Deleted from the Final NPL,N,N,1,1,Record of Decision,3/30/95,1995,Soil,LEAD,-81.0343313|34.0007493,45079003100,+34.0078902,-081.0307786
PALMETTO WOOD PRESERVING,SCD003362217,DIXIANA,LEXINGTON,SC,29033,199 Pallet Drive,33.920831,-81.060281,4,Currently on the Final NPL,N,N,1,1,ROD Amendment,8/15/08,2008,Groundwater,ARSENIC,-81.0592601|33.9193206,45063020605,+33.9250885,-081.0694330
"PARA-CHEM SOUTHERN, INC.",SCD002601656,SIMPSONVILLE,GREENVILLE,SC,29681,117 Southeast Main Street,34.7134,-82.233,4,Currently on the Final NPL,N,N,1,1,ROD Amendment,12/23/99,2000,Soil,"1,1,1-TRICHLOROETHANE",-82.2542834|34.7370639,45045003011,+34.7317039,-082.2349019
PARRIS ISLAND MARINE CORPS RECRUIT DEPOT,SC6170022762,PARRIS ISLAND,BEAUFORT,SC,29902,283 Blvd de France,32.3528,-80.7031,4,Currently on the Final NPL,N,Y,1,1,Record of Decision,9/12/06,2006,Sediment,ALPHA-CHLORDANE,-80.6923295|32.3351978,45013001000,+32.3175972,-080.6822133
ROCHESTER PROPERTY,SCD980840698,TRAVELERS REST,GREENVILLE,SC,29690,475 Ledbetter Road,34.9719,-82.5015,4,Deleted from the Final NPL,N,N,1,1,Explanation of Significant Differences,7/8/02,2002,Groundwater,TRICHLOROETHENE,-82.4434548|34.9676167,45045003904,+34.9863586,-082.4422353
ROCK HILL CHEMICAL CO.,SCD980844005,ROCK HILL,YORK,SC,29730,2245 Cherry Road,34.9661,-80.9985,4,Currently on the Final NPL,N,N,1,1,Record of Decision,6/27/94,1994,Groundwater,CHLOROETHENE (VINYL CHLORIDE),-81.0250784|34.9248667,45091060501,+34.9325443,-081.0382008
"SANGAMO WESTON, INC./TWELVE-MILE CREEK/LAKE HARTWELL PCB CONTAMINATION",SCD003354412,PICKENS,PICKENS,SC,29671,538 State Road S-39-190,34.895,-82.7232,4,Currently on the Final NPL,N,N,1,1,Explanation of Significant Differences,9/10/91,1991,Groundwater,ARSENIC,-82.7073573|34.8834489,45077010402,+34.9027375,-082.7107738
SAVANNAH RIVER SITE (USDOE),SC1890008989,JACKSON,AIKEN,SC,29802,SC-1 and Green Pond Road,33.348889,-81.737781,4,Currently on the Final NPL,N,Y,21,6,Explanation of Significant Differences,8/5/05,2005,Soil,RADIUM-228,-81.721952|33.5598586,45003021300,+33.5673561,-081.7526423
SCRDI BLUFF ROAD,SCD000622787,COLUMBIA,RICHLAND,SC,29209,321 Bluff Road S,33.885419,-80.90875,4,Currently on the Final NPL,N,N,1,1,Record of Decision,9/12/90,1990,Groundwater,"1,1,1-TRICHLOROETHANE",-81.0343313|34.0007493,45079003100,+34.0078902,-081.0307786
SCRDI DIXIANA,SCD980711394,WEST COLUMBIA,LEXINGTON,SC,29172,124 Ballard Ct,33.90445,-81.063889,4,Currently on the Final NPL,N,N,1,1,Explanation of Significant Differences,9/22/10,2010,Groundwater,"1,1-DICHLOROETHENE",-81.0739827|33.9657091,45063020202,+33.9592231,-081.0781384
SHURON INC.,SCD003357589,BARNWELL,BARNWELL,SC,29812,100 Clinton St,33.236694,-81.375778,4,Currently on the Final NPL,N,N,1,1,Record of Decision,9/9/98,1998,Groundwater,"1,2-DICHLOROETHANE",-81.3587178|33.2448733,45011970400,+33.2281969,-081.2774271
TOWNSEND SAW CHAIN CO.,SCD980558050,ELGIN,RICHLAND,SC,29045,910 Spears Creek Court,34.10625,-80.834169,4,Currently on the Final NPL,N,N,1,1,Explanation of Significant Differences,7/20/01,2001,Soil,CHROMIUM(VI),-80.8548092|34.1284842,45079011407,+34.1090625,-080.7877667
"WAMCHEM, INC.",SCD037405362,BEAUFORT,BEAUFORT,SC,29906,2701 Trask Parkway,32.497219,-80.741669,4,Currently on the Final NPL,N,N,1,1,Record of Decision,6/30/88,1988,Groundwater,"1,2,4-TRICHLOROBENZENE",-80.74587875|32.4239465,45013000502,+32.4178372,-080.7337269
