npi,basic_organization_name,latitude,longitude,address,city,state,zip,county,country,match_indicator,match_type,tiger_line_id,tiger_side,state_fips,county_fips,census_tract,census_block
1003051129,FCRX SC INC,34.975195,-81.043474,3217 Celanese Rd,Rock Hill,SC,29732,York County,US,Match,Exact,19822535,L,45,091,060700,4002
1003152810,WAL-MART STORES EAST LP,34.945154,-82.248175,805 W Wade Hampton Blvd,Greer,SC,29650,Greenville County,US,Match,Non_Exact,38368167,L,45,045,002504,2003
1003233925,HARTSVILLE DRUG CO. INC.,34.171138,-79.831522,1312 Celebration Blvd,Florence,SC,29501,Florence County,US,Match,Exact,645421198,L,45,041,000202,3000
1003262809,THE KROGER CO,34.042029,-81.025109,12 S Silas Brook Ct,Columbia,SC,29203,Richland County,US,Match,Exact,623846555,R,45,079,010900,1040
1003287632,WAL-MART STORES EAST LP,35.007629,-80.930693,209 Sanders St,Fort Mill,SC,29715,York County,US,No_Match,,,,,,,
1003371386,TANDEM HEALTH SC,33.948642,-80.356861,395 N Pike W,Sumter,SC,29153,Sumter County,US,Match,Non_Exact,202683946,R,45,085,000800,1019
1003819673,DAP INC,32.215228,-80.723881,1107 Main St,Hilton Head Island,SC,29926,Beaufort County,US,Match,Exact,615131954,R,45,013,010600,2019
1003821190,WALGREEN CO,33.991192,-80.979447,4417 Blossom St,Columbia,SC,29205,Richland County,US,Match,Exact,604798221,L,45,079,002605,4002
1003833260,WAL-MART STORES EAST LP,34.184909,-79.346241,NA US 501,Mullins,SC,29574,Marion County,US,No_Match,,,,,,,
1003856444,PUBLIX SUPER MARKETS INC,34.066048,-81.169582,100 Emory Ln,Columbia,SC,29212,Lexington County,US,Match,Exact,70049419,R,45,063,021110,2032
1003876244,RILEYS DRUGS INC,33.98347,-81.259028,1208 W Main St,Lexington,SC,29072,Lexington County,US,No_Match,,,,,,,
1003919598,SOUTH CAROLINA CVS PHARMACY LLC,34.691127,-80.788282,1889 Great Falls Hwy,Lancaster,SC,29720,Lancaster County,US,Match,Exact,636577283,R,45,057,010500,3020
1003919796,SOUTH CAROLINA CVS PHARMACY LLC,34.19646,-79.703977,3204 E Palmetto St,Florence,SC,29506,Florence County,US,Match,Non_Exact,28883256,R,45,041,000502,1015
1013004217,"MEDICINE MART COLUMBIA, INC.",33.987819,-80.988701,3800 State Hwy 16,Columbia,SC,29205,Richland County,US,No_Match,,,,,,,
1013010552,SOUTH CAROLINA CVS PHARMACY LLC,34.048943,-81.104564,3039 US Hwy 176,Columbia,SC,29210,Richland County,US,No_Match,,,,,,,
1013010875,SOUTH CAROLINA CVS PHARMACY LLC,33.937368,-80.382996,1055 Alice Dr,Sumter,SC,29150,Sumter County,US,Match,Exact,202707274,R,45,085,000901,2028
1013010883,SOUTH CAROLINA CVS PHARMACY LLC,34.700437,-82.93774,210 Ingles Pl,Seneca,SC,29678,Oconee County,US,Match,Exact,646632151,R,45,073,030602,1039
1013011410,WALGREEN CO,33.486679,-80.862823,NA US 601,Orangeburg,SC,29115,Orangeburg County,US,No_Match,,,,,,,
1013264670,WALGREEN CO,33.630533,-78.963402,1149 Dick Pond Rd,Myrtle Beach,SC,29575,Horry County,US,Match,Exact,645297070,L,45,051,051403,2005
1013428176,LONGS DRUGSTORES OF SC INC,32.809563,-80.029636,1470 Tobias Gadson Blvd,Charleston,SC,29407,Charleston County,US,Match,Exact,615119876,L,45,019,002613,3007
1013468404,HUMANA PHARMACY INC,34.543946,-82.631511,500 Reed Rd,Anderson,SC,29621,Anderson County,US,Match,Exact,637231794,R,45,007,001100,3022
1013922962,INGLES MARKETS INC,34.888433,-82.071798,2098 E Main St,Duncan,SC,29334,Spartanburg County,US,Match,Non_Exact,19500501,L,45,083,023406,2007
1013934272,WAL-MART STORES EAST LP,34.251179,-80.645569,1612 State Rd S-28-130,Camden,SC,29020,Kershaw County,US,No_Match,,,,,,,
1013972108,F.M. LINDER & SON LLC,32.90263,-80.663781,322 E Washington St,Walterboro,SC,29488,Colleton County,US,Match,Non_Exact,19156048,L,45,029,970502,1009
1023058468,PUBLIX SUPER MARKETS INC,32.20943,-80.723436,59 Pembroke Dr,Hilton Head Island,SC,29926,Beaufort County,US,Match,Exact,87629268,L,45,013,010400,1035
1023104890,PUBLIX SUPER MARKETS INC,33.013165,-80.234626,1581 Central Ave,Summerville,SC,29483,Dorchester County,US,No_Match,,,,,,,
1023111887,SOUTH CAROLINA CVS PHARMACY LLC,34.945396,-81.029502,1039 Charlotte Ave,Rock Hill,SC,29732,York County,US,Match,Exact,19791152,L,45,091,060700,2008
1023111895,SOUTH CAROLINA CVS PHARMACY LLC,34.275731,-80.609468,2504 US Hwy 521,Camden,SC,29020,Kershaw County,US,No_Match,,,,,,,
1023176658,"ELGIN PHARMACY, INC.",34.168484,-80.793527,1406 State Rd S-28-102,Elgin,SC,29045,Kershaw County,US,No_Match,,,,,,,
1033118757,COMMUNITY PHARMACY OF CHESTER LLC,34.703544,-81.211218,125 Church St,Chester,SC,29706,Chester County,US,Match,Exact,635515013,L,45,023,020200,4018
1033122635,WALGREEN CO,34.097924,-81.166193,7447 US Hwy 176,Irmo,SC,29063,Richland County,US,No_Match,,,,,,,
1033136205,SAMS EAST INC,34.935172,-81.999445,151 Peachwood Centre Dr,Spartanburg,SC,29301,Spartanburg County,US,Match,Exact,19493737,L,45,083,021902,3000
1033212527,SOUTH CAROLINA CVS PHARMACY LLC,32.790264,-79.852391,1401 State Hwy 703,Mount Pleasant,SC,29464,Charleston County,US,No_Match,,,,,,,
1033267695,T & B INC,34.301215,-79.870188,202 Main St,Darlington,SC,29532,Darlington County,US,Match,Non_Exact,78399280,L,45,031,011100,2016
1033291513,SOUTH CAROLINA ONCOLOGY ASSOCIATES PA,34.014879,-81.075188,169 Stoneridge Dr,Columbia,SC,29210,Richland County,US,Match,Exact,604769435,R,45,079,010403,2050
1033633730,WALGREEN CO,34.897935,-81.76368,6951 S Pine St,Pacolet,SC,29372,Spartanburg County,US,Match,Non_Exact,640603498,L,45,083,023902,2044
1033635933,WALGREEN CO,35.039882,-82.07765,201 Gallman Rd,Inman,SC,29349,Spartanburg County,US,Match,Exact,19462163,L,45,083,022901,2058
1033641121,BANKS DRUG LTC LLC,33.847481,-81.660533,104 Crawford Ln,Ridge Spring,SC,29129,Saluda County,US,Match,Exact,65526138,R,45,081,960400,3011
1033739024,MARUTI SQUARE INC.,34.159658,-79.75581,702 Pamplico Hwy,Florence,SC,29505,Florence County,US,Match,Exact,640542535,R,45,041,000600,3007
1043279789,"INTRAMED PLUS, INC.",32.879733,-80.016919,NA I 26,North Charleston,SC,29418,Charleston County,US,No_Match,,,,,,,
1043313711,SOUTH CAROLINA CVS PHARMACY LLC,34.935957,-82.274504,6130 Wade Hampton Blvd,Taylors,SC,29687,Greenville County,US,Match,Exact,632588912,R,45,045,002604,1001
1043313810,SOUTH CAROLINA CVS PHARMACY LLC,35.038594,-82.077374,11150 Asheville Hwy,Inman,SC,29349,Spartanburg County,US,No_Match,,,,,,,
1043365703,SOUTH CAROLINA DEPARTMENT OF MENTAL HEALTH,34.018278,-81.024552,2200 Harden St,Columbia,SC,29205,Richland County,US,No_Match,,,,,,,
1043394299,LITTLE RIVER MEDICAL CENTER PHARMACY,33.88321,-78.598588,4303 Live Oak Rd,Little River,SC,29566,Horry County,US,Match,Non_Exact,638020431,R,45,051,040104,1041
1043394315,FAMILY HEALTH CENTER PHARMACY,33.527166,-80.839743,1 Magnolia St,Orangeburg,SC,29115,Orangeburg County,US,No_Match,,,,,,,
1043509045,SOUTH CAROLINA CVS PHARMACY LLC,33.979394,-81.30258,2373 Augusta Hwy,Lexington,SC,29072,Lexington County,US,Match,Exact,70085913,R,45,063,021023,1000
1043517329,"PRESCRIPTIONS PLUS PHARMACY, LLC",35.100426,-81.676772,305 Chesnee Hwy,Gaffney,SC,29341,Cherokee County,US,Match,Exact,624329967,L,45,021,970201,3013
1043641020,HARRIS TEETER LLC,32.937492,-80.139928,9580 Old Glory Ln,Summerville,SC,29485,Dorchester County,US,Match,Exact,178486108,L,45,035,010821,1003
1043858996,M HOLDINGS LLC,33.993468,-81.305692,808 Highway 378,Lexington,SC,29072,Lexington County,US,No_Match,,,,,,,
1053322628,UNION FAMILY PHARMACY LLC,34.71946,-81.638343,528 Rice Ave,Union,SC,29379,Union County,US,Match,Exact,604738611,L,45,087,030100,1008
1053345785,THE KROGER CO,33.759824,-78.968057,3710 Renee Dr,Myrtle Beach,SC,29579,Horry County,US,Match,Exact,648172890,L,45,051,060209,2018
1053393710,"STO-PHAR,INC",33.920623,-80.342683,21 W Liberty St,Sumter,SC,29150,Sumter County,US,Match,Non_Exact,202689510,R,45,085,001300,2013
1053402891,"KASH & KARRY PHARMACY, LLC",34.862528,-82.40726,8 James St,Greenville,SC,29609,Greenville County,US,Match,Exact,38299751,R,45,045,000900,1004
1053414722,SOUTH CAROLINA CVS PHARMACY LLC,34.776359,-80.382981,507 Hazel Blakeney,Pageland,SC,29728,Chesterfield County,US,Match,Non_Exact,14342768,R,45,025,950101,2017
1053475566,"LOW COUNTRY HEALTH CARE SYSTEM, INC",32.965392,-81.253649,185 Pond Ln,Fairfax,SC,29827,Allendale County,US,Match,Exact,19037990,L,45,005,970500,4023
1053594812,WALGREEN CO,34.976697,-81.006333,1907 Aldersgate Rd,Rock Hill,SC,29732,York County,US,No_Match,,,,,,,
1053595074,WALGREEN CO,34.921271,-81.886703,2204 Southport Rd,Spartanburg,SC,29302,Spartanburg County,US,Match,Exact,19501477,L,45,083,022004,1006
1053782615,WAL-MART STORES EAST LP,34.72302,-82.295199,1409 W Georgia Rd,Simpsonville,SC,29680,Greenville County,US,Match,Non_Exact,620932869,R,45,045,003017,2007
1053788638,RPVR CORPORATION,34.839963,-82.60555,109 Fleetwood Dr,Easley,SC,29640,Pickens County,US,Match,Exact,26188517,L,45,077,010805,1025
1063434702,SOUTH CAROLINA CVS PHARMACY LLC,34.549709,-82.674327,3498 Clemson Blvd,Anderson,SC,29621,Anderson County,US,Tie,,,,,,,
1063434710,SOUTH CAROLINA CVS PHARMACY LLC,34.705253,-82.25853,698 Fairview Rd,Simpsonville,SC,29680,Greenville County,US,Match,Exact,38331448,L,45,045,003013,2029
1063515740,SOUTH CAROLINA CVS PHARMACY LLC,34.731771,-80.765783,414 Hwy 9th Byp,Lancaster,SC,29720,Lancaster County,US,No_Match,,,,,,,
1063581304,RANDY B BOLAND,33.348473,-80.681811,7105 Charleston Hwy,Bowman,SC,29018,Orangeburg County,US,Match,Exact,19223517,R,45,075,010500,2017
1063651941,WALGREEN CO,34.493793,-81.986251,810 E Main St,Laurens,SC,29360,Laurens County,US,Tie,,,,,,,
1063695823,WALGREEN CO,34.988381,-81.210324,198 Cooperative Way,York,SC,29745,York County,US,No_Match,,,,,,,
1063790947,SOUTH CAROLINA CVS PHARMACY LLC,34.850957,-82.399096,1 H N Main St,Greenville,SC,29601,Greenville County,US,Match,Exact,38300991,L,45,045,000200,1013
1063876084,LOW COUNTRY HEALTH CARE SYSTEM,33.255595,-81.362624,811 Reynolds Rd,Barnwell,SC,29812,Barnwell County,US,Match,Exact,19068449,L,45,011,970300,4032
1063905552,WALGREEN CO,32.788591,-79.946699,201 Rutledge Ave,Charleston,SC,29403,Charleston County,US,Match,Exact,108807224,L,45,019,000600,1002
1063914372,HARRIS TEETER LLC,34.828532,-82.399069,1703 Augusta St,Greenville,SC,29605,Greenville County,US,Match,Exact,38329430,L,45,045,004200,2004
1063915643,HUB CITY PHARMACY LLC,34.922298,-81.982911,1707 John B White Sr Blvd,Spartanburg,SC,29301,Spartanburg County,US,Match,Exact,19466229,L,45,083,022007,1006
1073038691,WALGREEN CO,34.05375,-80.946846,2304 Decker Blvd,Columbia,SC,29206,Richland County,US,Match,Exact,71861331,L,45,079,011304,4009
1073146502,GREENVILLE HEALTH CORPORATION,33.924198,-80.34276,NA US 521,Sumter,SC,29150,Sumter County,US,No_Match,,,,,,,
1073530226,WAL-MART STORES EAST LP,34.975284,-81.878122,2161 E Main St,Spartanburg,SC,29307,Spartanburg County,US,No_Match,,,,,,,
1073616413,SOUTH CAROLINA CVS PHARMACY LLC,33.984605,-81.056413,501 Knox Abbott Dr,Cayce,SC,29033,Lexington County,US,Match,Exact,70065947,L,45,063,020201,2000
1073616751,SOUTH CAROLINA CVS PHARMACY LLC,34.445615,-82.387942,400 E Greer St,Honea Path,SC,29654,Anderson County,US,Match,Non_Exact,25437203,R,45,007,011502,1043
1073789111,INGLES MARKETS INC,35.028004,-81.895874,2388 Chesnee Hwy,Spartanburg,SC,29303,Spartanburg County,US,Match,Exact,642939409,R,45,083,021402,2006
1073917043,ST FRANCIS HOSPITAL INC,34.804549,-82.318298,75 Innovation Dr,Greenville,SC,29607,Greenville County,US,Match,Exact,627757838,R,45,045,002811,2053
1083139745,WALGREEN CO,33.914022,-81.133291,709 Main St,West Columbia,SC,29170,Lexington County,US,Match,Exact,70073711,R,45,063,020703,3032
1083171185,MEDICAL UNIVERSITY HOSPITAL AUTHORITY,32.878799,-80.013148,4900 Lacross Rd,Charleston,SC,29406,Charleston County,US,No_Match,,,,,,,
1083619464,"ORANGE CUT RATE DRUG STORE, INC",33.48925,-80.864577,1150 Russell St,Orangeburg,SC,29115,Orangeburg County,US,Match,Exact,19249433,R,45,075,011300,1034
1083631238,WAL-MART STORES EAST LP,34.69879,-79.931952,1037 Chesterfield Hwy,Cheraw,SC,29520,Chesterfield County,US,Match,Exact,600594664,L,45,025,950503,1022
1083632822,WAL-MART STORES EAST LP,34.708232,-82.759696,1283 18 Mile Rd,Central,SC,29630,Pickens County,US,Match,Exact,26185131,R,45,077,011105,1040
1083632889,WAL-MART STORES EAST LP,34.696964,-81.192083,1557 State Hwy 97,Chester,SC,29706,Chester County,US,No_Match,,,,,,,
1083675391,TIMMONSVILLE DRUG INC,34.134849,-79.937728,314 E Market St,Timmonsville,SC,29161,Florence County,US,Tie,,,,,,,
1083711584,"SOUTH CAROLINA CVS PHARMACY, L.L.C.",33.569893,-79.034945,3560 Old Kings Hwy,Murrells Inlet,SC,29576,Georgetown County,US,Match,Non_Exact,638642021,L,45,043,920511,2000
1083717763,SOUTH CAROLINA CVS PHARMACY LLC,34.825772,-82.394139,14 McPherson Ln,Greenville,SC,29605,Greenville County,US,Match,Exact,38301685,R,45,045,004200,2013
1083727630,HUBBARD YOUNG PHARMACY INC,34.686885,-82.835514,400 College Ave 1,Clemson,SC,29631,Pickens County,US,Match,Exact,26163831,R,45,077,011205,2010
1083801286,IRMO DRUG INC,34.08915,-81.174559,1009 Lake Murray Blvd,Irmo,SC,29063,Lexington County,US,Match,Exact,70083601,R,45,063,021112,1014
1083964829,PUBLIX SUPER MARKETS INC,35.061657,-80.965094,940 103 Gold Hill Rd,Fort Mill,SC,29708,York County,US,No_Match,,,,,,,
1093018228,SOUTH CAROLINA CVS PHARMACY LLC,34.748972,-82.045494,405 N Main St,Woodruff,SC,29388,Spartanburg County,US,Match,Non_Exact,19520112,R,45,083,023602,1032
1093064172,FAMILY PHARMACY LLC,34.178638,-82.023721,300 Cambridge St N,Ninety Six,SC,29666,Greenwood County,US,Match,Exact,50807486,R,45,047,970702,2026
1093141970,CLINTON DISCOUNT PHARMACY LLC,34.476008,-81.880631,310 N Broad St,Clinton,SC,29325,Laurens County,US,Tie,,,,,,,
1093720161,WALGREEN CO,33.94563,-80.372488,1003 Broad St,Sumter,SC,29150,Sumter County,US,Match,Exact,202704510,R,45,085,000901,1046
1093720187,WALGREEN CO,33.944525,-81.168578,1023 Old Barnwell Rd,West Columbia,SC,29170,Lexington County,US,Match,Non_Exact,70052686,R,45,063,021043,1009
1093732257,WAL-MART STORES EAST LP,33.995449,-81.223599,5559 Sunset Blvd,Lexington,SC,29072,Lexington County,US,Match,Exact,628063109,R,45,063,021031,3002
1093755431,PUBLIX SUPER MARKETS INC,34.096151,-81.159069,7330 Broad River Rd,Irmo,SC,29063,Richland County,US,Match,Exact,640029066,R,45,079,010315,1042
1093812596,"SOUTH CAROLINA CVS PHARMACY, L.L.C.",34.903262,-82.387988,1118 State Park Rd,Greenville,SC,29609,Greenville County,US,Match,Exact,615490529,R,45,045,002304,2000
1093942906,WAL-MART STORES EAST LP,34.126101,-81.228661,1151 US Hwy 76,Irmo,SC,29063,Richland County,US,No_Match,,,,,,,
1093988214,WALGREEN CO.,33.504294,-81.900223,4398 Jefferson Davis Hwy,Beech Island,SC,29842,Aiken County,US,Match,Exact,65004056,L,45,003,021003,1042
1104069707,MEDS & MORE LLC,34.057077,-78.892664,3914 Main St,Loris,SC,29569,Horry County,US,Match,Exact,639631647,L,45,051,020202,1090
1104114388,WALGREEN CO,34.788308,-82.482847,11099 Anderson Rd,Piedmont,SC,29673,Anderson County,US,Match,Exact,645419851,R,45,007,010103,4025
1104275403,SANDHILLS MEDICAL FOUNDATION,34.46219,-80.259035,475 7th,McBee,SC,29101,Chesterfield County,US,No_Match,,,,,,,
1104343623,WALGREEN CO,33.764969,-79.019362,1927 Hwy 544,Conway,SC,29526,Horry County,US,Match,Non_Exact,647275040,R,45,051,060406,1000
1104458173,GOVINDA LLC,35.030108,-81.968426,2527 Boiling Springs Rd,Boiling Springs,SC,29316,Spartanburg County,US,Match,Exact,19530669,L,45,083,022406,2001
1104831056,INGLES MARKETS INC,35.0032,-82.004061,1093 Springfield Rd,Boiling Springs,SC,29316,Spartanburg County,US,Match,Exact,19492292,R,45,083,021803,3011
1104843366,WAL-MART STORES EAST LP,34.704561,-81.632552,503 S Duncan Byp,Union,SC,29379,Union County,US,Tie,,,,,,,
1104883107,FOWLER PHARMACY INC,34.618871,-79.684776,312 N Marlboro St,Bennettsville,SC,29512,Marlboro County,US,Match,Non_Exact,25850514,R,45,069,960301,2011
1104902147,SOUTH CAROLINA DEPTARTMENT OF MENTAL HEALTH,34.478338,-82.569418,100 Highway 252,Anderson,SC,29621,Anderson County,US,Match,Non_Exact,638843160,R,45,007,011301,2004
1104924141,PIGGLY WIGGLY OF WESTMART INC,33.94599,-80.373183,NA US 76 Business,Sumter,SC,29150,Sumter County,US,No_Match,,,,,,,
1104929975,SOUTH CAROLINA CVS PHARMACY LLC,34.962371,-82.210618,1119 Apalache St,Greer,SC,29651,Spartanburg County,US,Match,Exact,19459808,R,45,083,023301,1007
1104994938,PH & F INC,34.984754,-81.218798,1007 Creekside Medical Dr,York,SC,29745,York County,US,Match,Exact,645271815,R,45,091,061602,5000
1114020971,SOUTH CAROLINA CVS PHARMACY LLC,34.47464,-82.652662,108 Highway 28th Byp,Anderson,SC,29624,Anderson County,US,No_Match,,,,,,,
1114020989,SOUTH CAROLINA CVS PHARMACY LLC,32.870979,-81.114812,700 US Hwy 278,Hampton,SC,29924,Hampton County,US,No_Match,,,,,,,
1114108735,BANKS PHARMACY,33.777276,-81.930753,439 Bauskett,Edgefield,SC,29824,Edgefield County,US,Match,Non_Exact,55834474,L,45,037,970204,4009
1114114501,TANDEM HEALTH SC,33.943893,-80.343335,938 N Main St,Sumter,SC,29150,Sumter County,US,Match,Non_Exact,202670765,L,45,085,000800,3011
1114152204,"SOUTH CAROLINA CVS PHARMACY, L.L.C.",32.974803,-80.060516,8937 US Hwy 78,Charleston,SC,29406,Charleston County,US,No_Match,,,,,,,
1114203973,WALGREEN CO,32.859442,-79.794702,NA US 17,Mount Pleasant,SC,29466,Charleston County,US,No_Match,,,,,,,
1114251337,"HAWTHORNE LUGOFF PHARMACY, LLC",34.236314,-80.666483,150 State Rd S-28-142,Lugoff,SC,29078,Kershaw County,US,No_Match,,,,,,,
1114306735,WAL-MART STORES EAST LP,34.921093,-81.886343,199 Cedar Springs Rd,Spartanburg,SC,29302,Spartanburg County,US,Match,Exact,19528176,L,45,083,022101,2048
1114325800,GREENVILLE HEALTH CORPORATION,34.815872,-82.414326,975 W Faris Rd,Greenville,SC,29605,Greenville County,US,Match,Non_Exact,38343377,L,45,045,002103,2021
1114497435,"PUBLIX SUPER MARKETS, INC.",32.788043,-79.957709,170 UT Lockwood Blvd,Charleston,SC,29403,Charleston County,US,Match,Non_Exact,618707360,L,45,019,001100,3016
1114545936,"R PH NOW, LLC",33.386463,-79.288216,1040 N Fraser St,Georgetown,SC,29440,Georgetown County,US,Match,Non_Exact,638642299,R,45,043,920302,2022
1114967551,PUBLIX SUPER MARKETS INC,33.00672,-80.044966,211 St James Ave,Goose Creek,SC,29445,Berkeley County,US,No_Match,,,,,,,
1124045398,WAL-MART STORES EAST LP,33.830457,-78.670875,554 N Hwy 17,North Myrtle Beach,SC,29582,Horry County,US,No_Match,,,,,,,
1124069612,PUBLIX SUPER MARKETS INC,34.837617,-82.364313,225 S Pleasantburg Dr,Greenville,SC,29607,Greenville County,US,Tie,,,,,,,
1124121611,SOUTH CAROLINA CVS PHARMACY LLC,33.506642,-80.85003,NA US 21 Business,Orangeburg,SC,29115,Orangeburg County,US,No_Match,,,,,,,
1124121991,SOUTH CAROLINA CVS PHARMACY LLC,34.732764,-82.254098,307 SE Main St,Simpsonville,SC,29681,Greenville County,US,Tie,,,,,,,
1124122932,"SOUTH CAROLINA CVS PHARMACY, L.L.C.",34.835919,-82.35217,1 Commercial Dr,Greenville,SC,29607,Greenville County,US,Match,Exact,38366755,L,45,045,004400,2039
1124382478,FAMILY PHYSICIANS OF SPARTANBURG PHARMACY,34.91465,-82.01024,2986 Reidville Rd,Spartanburg,SC,29301,Spartanburg County,US,Match,Exact,19493637,R,45,083,021902,4015
1124469473,THE KROGER CO,32.186977,-80.720445,43 Shelter Cove Ln,Hilton Head Island,SC,29928,Beaufort County,US,Match,Exact,612418764,L,45,013,011100,1012
1124672662,"PROXSYS RX - SC, LLC",33.786814,-79.002834,153 Lander Dr,Conway,SC,29526,Horry County,US,No_Match,,,,,,,
1134131352,CORAM HEALTHCARE/CAROLINA HOME THERAPEUTICS,34.015915,-81.08592,NA I 126,Columbia,SC,29210,Richland County,US,No_Match,,,,,,,
1134222805,SOUTH CAROLINA CVS PHARMACY LLC,33.52304,-81.954277,101 Nutgrove Dr,North Augusta,SC,29841,Aiken County,US,Match,Non_Exact,635513033,R,45,003,020701,3035
1134222904,SOUTH CAROLINA CVS PHARMACY LLC,34.965324,-81.930615,NA US 176,Spartanburg,SC,29303,Spartanburg County,US,No_Match,,,,,,,
1134577331,WAL-MART STORES EAST LP,33.944652,-81.16932,1049 State Rd S-32-104,West Columbia,SC,29170,Lexington County,US,No_Match,,,,,,,
1134668395,"MOSS COMPOUNDING PHARMACY, LLC",34.198203,-79.820657,2508 Hoffmeyer Rd,Florence,SC,29501,Florence County,US,Match,Exact,647414010,L,45,041,000201,2059
1134680762,SOUTH CAROLINA CVS PHARMACY LLC,32.308927,-80.976385,14 Mark Cummings Rd,Hardeeville,SC,29927,Jasper County,US,No_Match,,,,,,,
1134696230,"HOLY CITY PHARMACY, LLC",32.7593,-79.97377,350 Folly Rd,Charleston,SC,29412,Charleston County,US,No_Match,,,,,,,
1134770753,"JTJ MEDICAL SUPPLY, INC.",34.008749,-81.024096,1500 Gregg St,Columbia,SC,29201,Richland County,US,Match,Exact,71820782,R,45,079,003100,1019
1144231713,LEES INLET APOTHECARY INC,33.570962,-79.026244,3545 Bus 17,Murrells Inlet,SC,29576,Georgetown County,US,No_Match,,,,,,,
1144254871,THE KROGER CO,34.116118,-80.886217,9632 Mill Field Rd,Columbia,SC,29223,Richland County,US,Match,Exact,71826812,L,45,079,011419,2020
1144298282,"ROCHE PHARMACY, INC.",34.502084,-81.61458,50 Main St,Whitmire,SC,29178,Newberry County,US,No_Match,,,,,,,
1144306713,"LYMAN DRUG, INC.",34.955211,-82.120718,130 Spartanburg Hwy 130,Lyman,SC,29365,Spartanburg County,US,Match,Exact,647215595,R,45,083,023104,2005
1144323817,SOUTH CAROLINA CVS PHARMACY LLC,34.201135,-79.247406,498 US Hwy 76,Mullins,SC,29574,Marion County,US,No_Match,,,,,,,
1144323916,SOUTH CAROLINA CVS PHARMACY LLC,34.160572,-82.38314,901 W Greenwood St,Abbeville,SC,29620,Abbeville County,US,No_Match,,,,,,,
1144362229,WAGENER DRUG CO INC,33.653705,-81.361657,196 Lee St N,Wagener,SC,29164,Aiken County,US,Match,Exact,64980193,R,45,003,021700,3055
1144572850,HARRIS TEETER LLC,32.783251,-79.991333,924 Savannah Hwy,Charleston,SC,29407,Charleston County,US,Match,Exact,647143179,R,45,019,002900,1070
1144743170,WALGREEN CO,35.020897,-81.962464,2104 Boiling Springs Rd,Boiling Springs,SC,29316,Spartanburg County,US,Match,Exact,645286700,L,45,083,022406,3012
1144744848,WALGREEN CO,34.701196,-82.476549,920 Anderson St,Piedmont,SC,29673,Anderson County,US,Match,Exact,25448459,L,45,007,010200,2020
1144840026,"SALUBRIUS PHARMACY, LLC",34.780597,-82.473936,112 Halter Dr,Piedmont,SC,29673,Anderson County,US,Match,Exact,25496260,L,45,007,010105,1025
1154330926,LAUREL PHARMACY INC.,34.017722,-81.015197,2 Harper St,Columbia,SC,29204,Richland County,US,Match,Exact,604769337,R,45,079,001000,1008
1154343804,SOUTH CAROLINA CVS PHARMACY LLC,32.935088,-80.038251,7394 US Hwy 78,Charleston,SC,29406,Charleston County,US,No_Match,,,,,,,
1154343895,SOUTH CAROLINA CVS PHARMACY LLC,34.831564,-82.306002,1113 Woodruff Rd,Greenville,SC,29607,Greenville County,US,Match,Exact,647215955,R,45,045,002811,2003
1154365468,"MAIN STREET PHARMACIES OF SOUTH CAROLINA, LLC",34.245815,-80.616764,1011 US Hwy 1,Camden,SC,29020,Kershaw County,US,No_Match,,,,,,,
1154400752,"PROPP DRUGS,INC.",34.518304,-82.650869,1501 N Fant St,Anderson,SC,29621,Anderson County,US,Match,Non_Exact,25478736,L,45,007,000200,2013
1154424828,SOUTH CAROLINA CVS PHARMACY LLC,32.969002,-80.20119,105 Owens Cir,Summerville,SC,29483,Dorchester County,US,Match,Exact,178460546,R,45,035,010505,1036
1154424836,SOUTH CAROLINA CVS PHARMACY LLC,35.143259,-81.861473,106 W Manning St,Chesnee,SC,29323,Spartanburg County,US,Tie,,,,,,,
1154586063,"SOUTH CAROLINA CVS PHARMACY, L.L.C.",34.704964,-82.98971,1449 Blue Ridge Blvd,Seneca,SC,29672,Oconee County,US,Match,Exact,636639370,L,45,073,030601,1012
1154588101,PLANTATION PHARMACY AT WAPPOO ROAD INC,32.787274,-80.020224,1760 Pearlott St,Charleston,SC,29407,Charleston County,US,Match,Exact,108803158,R,45,019,002802,1001
1154803831,"OAKS PHARMACY, LLC",34.552036,-82.630401,2119 Highway 81 N,Anderson,SC,29621,Anderson County,US,Match,Non_Exact,25453995,L,45,007,011201,1041
1154859494,"MCP OF SUMTER, INC.",33.919081,-80.366735,776 A W Liberty St,Sumter,SC,29150,Sumter County,US,Match,Exact,202679176,R,45,085,001300,1021
1164449310,WAL-MART STORES EAST LP,33.502023,-81.958706,1207 Knox Ave,North Augusta,SC,29841,Aiken County,US,Match,Exact,640692070,R,45,003,020702,1007
1164508941,"PRESCRIPTION SHOP,INC.",34.515164,-82.649272,1201 N Fant St,Anderson,SC,29621,Anderson County,US,Match,Non_Exact,25451223,L,45,007,000200,2023
1164525507,SOUTH CAROLINA CVS PHARMACY LLC,32.792421,-79.988816,904 St Andrews Blvd,Charleston,SC,29407,Charleston County,US,No_Match,,,,,,,
1164525606,SOUTH CAROLINA CVS PHARMACY LLC,32.97206,-80.019585,1044 Red Bank Rd,Goose Creek,SC,29445,Berkeley County,US,No_Match,,,,,,,
1164747929,REGENESIS ORGANIZATION COMMUNITY HEALTH CENTER,34.933641,-81.931372,730 S Church St,Spartanburg,SC,29306,Spartanburg County,US,Match,Non_Exact,19523894,R,45,083,020900,1026
1164796215,INGLES MARKETS INC.,35.183018,-82.161411,1851 Highway 14,Landrum,SC,29356,Spartanburg County,US,Match,Non_Exact,632067797,L,45,083,022600,1074
1164987525,TRUE HEALTH INVESTORS,33.969923,-81.07737,1601 Charleston Hwy,West Columbia,SC,29169,Lexington County,US,Match,Exact,70055677,L,45,063,020202,1035
1174175038,SOUTH CAROLINA CVS PHARMACY LLC,32.891584,-79.773483,798 Airport Rd,Mount Pleasant,SC,29466,Charleston County,US,Match,Exact,645444302,R,45,019,004617,2028
1174540322,WAL-MART STORES EAST LP,34.492787,-81.984983,900 E Main St,Laurens,SC,29360,Laurens County,US,Tie,,,,,,,
1174541973,WAL-MART STORES EAST LP,33.961697,-80.389474,2316 Harper St,Sumter,SC,29153,Sumter County,US,Match,Exact,202685439,L,45,085,000401,3038
1174626857,SOUTH CAROLINA CVS PHARMACY LLC,34.72643,-82.388747,NA US 25,Piedmont,SC,29673,Greenville County,US,No_Match,,,,,,,
1174779219,LONGS DRUGS OF LEXINGTON SC INC,33.984031,-81.260738,159 Highway 378,Lexington,SC,29072,Lexington County,US,Match,Non_Exact,70088872,L,45,063,021028,2026
1174939078,GREENVILLE HEALTH CORPORATION,34.694925,-82.985912,294 Memorial Dr,Seneca,SC,29672,Oconee County,US,Match,Exact,639541853,L,45,073,030601,1012
1174985246,WAL-MART STORES EAST LP,34.288778,-79.857136,305 Joe Louis Blvd,Darlington,SC,29532,Darlington County,US,Match,Exact,78399625,L,45,031,011400,1028
1184639254,WALGREEN CO,33.846228,-79.064836,1615 Church St,Conway,SC,29526,Horry County,US,Match,Exact,649751556,L,45,051,070400,1052
1184639270,WALGREEN CO,34.502016,-82.681013,2521 W Whitner St,Anderson,SC,29624,Anderson County,US,Match,Non_Exact,25510315,L,45,007,000701,2023
1184649055,REYNOLDS DRUG STRORE INC,33.450449,-79.561028,9 S Morgan Ave,Andrews,SC,29510,Georgetown County,US,Tie,,,,,,,
1184728982,"SOUTH CAROLINA CVS PHARMACY, L.L.C.",34.806499,-82.233366,2580 Woodruff Rd,Simpsonville,SC,29681,Greenville County,US,Match,Exact,640771598,L,45,045,002815,1019
1194057927,WALGREEN CO,35.007602,-80.921798,966 Tom Hall St,Fort Mill,SC,29715,York County,US,No_Match,,,,,,,
1194069880,PUBLIX SUPER MARKETS INC,33.987722,-81.003186,2838 State Hwy 16,Columbia,SC,29205,Richland County,US,No_Match,,,,,,,
1194195925,PUBLIX SUPER MARKETS INC,35.1212,-81.081366,178 Highway 274,Clover,SC,29710,York County,US,Match,Non_Exact,640934321,R,45,091,061709,2021
1194730044,INGLES MARKETS INC,34.683762,-82.816183,378 Old Greenville Hwy,Clemson,SC,29631,Pickens County,US,Match,Non_Exact,26164015,R,45,077,011202,2009
1194730283,WALGREEN CO,34.922878,-81.993712,220 Wilder Dr,Spartanburg,SC,29301,Spartanburg County,US,Match,Non_Exact,19509060,R,45,083,021902,3018
1194742353,WAL-MART STORES EAST LP,33.239983,-81.392091,11425 Dunbarton Blvd,Barnwell,SC,29812,Barnwell County,US,No_Match,,,,,,,
1194765537,PUBLIX SUPER MARKETS INC,34.901063,-82.336927,2801 B Wade Hampton Blvd,Taylors,SC,29687,Greenville County,US,Match,Exact,38344305,L,45,045,001700,1018
1194828889,SOUTH CAROLINA CVS PHARMACY LLC,34.372013,-81.099369,80 US Hwy 321st Byp N,Winnsboro,SC,29180,Fairfield County,US,No_Match,,,,,,,
1205175932,WAL-MART STORES EAST LP,34.791758,-82.480358,11425 Anderson Rd,Greenville,SC,29611,Anderson County,US,Match,Exact,640778376,R,45,007,010103,4010
1205226495,"HIBBITTS ENTERPRISES, LLC",33.43235,-81.686792,757 N Main St,New Ellenton,SC,29809,Aiken County,US,Tie,,,,,,,
1205278322,SAMS EAST INC,34.941045,-80.95983,2421 Cross Pointe Dr,Rock Hill,SC,29730,York County,US,Match,Exact,645273962,R,45,091,061204,1024
1205313517,"PUBLIX SUPER MARKETS, INC.",33.908125,-81.218526,5409 Platt Springs Rd,Lexington,SC,29073,Lexington County,US,Match,Exact,70083695,R,45,063,020908,2016
1205352374,CAROLINA HEALTH PHARMACY LLC,33.755621,-78.864959,115 Village Center Blvd,Myrtle Beach,SC,29579,Horry County,US,Match,Exact,648176000,L,45,051,060310,3075
1205494184,ATLANTIC APOTHECARY INC.,33.80469,-78.727898,1307 Sable Palm Dr,North Myrtle Beach,SC,29582,Horry County,US,No_Match,,,,,,,
1205823309,MCLEOD PHARMACY INC,34.220042,-80.24819,202 N Dennis Ave,Bishopville,SC,29010,Lee County,US,Match,Non_Exact,79593216,R,45,061,920202,2042
1205877792,PUBLIX SUPER MARKETS INC,34.097977,-81.222575,2712 N Lake Dr,Columbia,SC,29212,Lexington County,US,Match,Non_Exact,638959822,R,45,063,021113,2013
1205900735,ROGERS INVESTMENTS INC,34.880923,-82.386642,14 Creekstone Ct,Greenville,SC,29609,Greenville County,US,Match,Exact,624816318,L,45,045,001101,3005
1205910338,INGLES MARKETS INC,34.937874,-82.004741,94 Loretta Dr,Spartanburg,SC,29301,Spartanburg County,US,Match,Exact,19479221,L,45,083,021902,1028
1205914629,NOTTAP INC,35.073437,-81.651115,105 N Granard St,Gaffney,SC,29341,Cherokee County,US,Tie,,,,,,,
1205939063,SOUTH CAROLINA CVS PHARMACY LLC,33.568439,-81.740854,126 Kalmia Cir,Aiken,SC,29801,Aiken County,US,Match,Exact,64989938,L,45,003,021300,1028
1205939071,SOUTH CAROLINA CVS PHARMACY LLC,34.007561,-81.773044,401 N Main St,Saluda,SC,29138,Saluda County,US,Tie,,,,,,,
1215007679,WALGREEN CO,34.133836,-80.878164,1060 Clemson Rd,Columbia,SC,29229,Richland County,US,Match,Exact,71808927,R,45,079,011425,2012
1215030085,SOUTH CAROLINA CVS PHARMACY LLC,33.695475,-80.218408,21 District,Manning,SC,29102,Clarendon County,US,No_Match,,,,,,,
1215030705,SOUTH CAROLINA CVS PHARMACY LLC,34.176868,-79.810741,2501 2nd Loop Rd,Florence,SC,29501,Florence County,US,Match,Exact,647395031,R,45,041,001300,3003
1215031026,SOUTH CAROLINA CVS PHARMACY LLC,35.07357,-81.652693,301 W Buford St,Gaffney,SC,29341,Cherokee County,US,Match,Non_Exact,18988536,L,45,021,970201,1059
1215041298,PRESCRIPTION SHOPPE OF GEORGETOWN SC INC,33.400038,-79.289725,1837 N Fraser St,Georgetown,SC,29440,Georgetown County,US,No_Match,,,,,,,
1215180591,SANDHILLS MEDICAL FOUNDATION INC,33.929781,-80.35078,416 N Salem Ave,Sumter,SC,29150,Sumter County,US,Match,Non_Exact,202704414,L,45,085,002000,2015
1215335336,HEALTH AND WELLNESS PHARMACY LLC,33.681374,-79.000437,5425 Dick Pond Rd,Myrtle Beach,SC,29588,Horry County,US,Match,Exact,29068344,L,45,051,051502,1013
1215940945,WALGREEN CO,34.688007,-82.996865,1640 Sandifer Blvd,Seneca,SC,29678,Oconee County,US,Match,Exact,645785888,L,45,073,030601,1023
1215973334,PUGH DRUG INC,34.209213,-81.533649,121 N Main St,Prosperity,SC,29127,Newberry County,US,Tie,,,,,,,
1215978705,PUBLIX SUPER MARKETS INC,34.554041,-82.682688,3803 Clemson Blvd,Anderson,SC,29621,Anderson County,US,Match,Exact,648767094,L,45,007,001000,1000
1225394760,BEAUFORT PHARMACY AND COMPOUNDING LLC,32.872869,-81.116222,259 US Hwy 601,Hampton,SC,29924,Hampton County,US,No_Match,,,,,,,
1225484074,M6 ENTERPRISES INC,34.808856,-82.23591,100 Woodruff Place Cir,Simpsonville,SC,29681,Greenville County,US,Match,Exact,640771613,R,45,045,002813,2008
1225551211,WALGREEN CO,33.749649,-78.816301,7901 N Kings Hwy,Myrtle Beach,SC,29572,Horry County,US,Match,Non_Exact,29059409,L,45,051,050303,1055
1225552995,WALGREEN CO,34.621771,-82.473325,117 Pelzer Ave,Williamston,SC,29697,Anderson County,US,Match,Exact,25462779,L,45,007,010404,2062
1235232000,SOUTH CAROLINA CVS PHARMACY LLC,34.282906,-81.595707,1210 Wilson Rd,Newberry,SC,29108,Newberry County,US,Match,Exact,45372528,R,45,071,950204,1044
1235232703,SPARTANBURG REGIONAL HEALTHCARE SYSTEM OUTPATIENT PHARMACY,34.968136,-81.940386,100 E Wood St,Spartanburg,SC,29303,Spartanburg County,US,Match,Non_Exact,19508059,L,45,083,020301,2014
1235232901,SOUTH CAROLINA CVS PHARMACY LLC,34.966908,-81.896389,110 Fernwood Dr,Spartanburg,SC,29307,Spartanburg County,US,Match,Exact,19513785,R,45,083,021302,2002
1235289562,MEDICAL ARTS PHARMACY OF HARTSVILLE,34.374778,-80.077031,213 Home Ave,Hartsville,SC,29550,Darlington County,US,Tie,,,,,,,
1235290149,"RURAL HEALTH SERVICES, INC.",33.493918,-81.897943,4665 Augusta Rd,Beech Island,SC,29842,Aiken County,US,Match,Exact,64987118,L,45,003,021004,1043
1235386012,WALGREEN CO,34.526836,-82.638836,1403 E Greenville St,Anderson,SC,29621,Anderson County,US,Match,Non_Exact,640545210,L,45,007,000300,3021
1235445222,WAL-MART STORES EAST LP,33.590262,-79.011383,402 Richway Dr,Murrells Inlet,SC,29576,Horry County,US,Match,Exact,647256689,L,45,051,051406,3014
1235586884,WAL-MART STORES EAST LP,33.716386,-78.855799,3901 N Kings Hwy,Myrtle Beach,SC,29577,Horry County,US,Match,Non_Exact,29059777,L,45,051,050500,2020
1235743295,KP AND RD LLC,34.401133,-82.249811,31 State Hwy 252,Ware Shoals,SC,29692,Greenwood County,US,No_Match,,,,,,,
1245252998,SOUTH CAROLINA CVS PHARMACY LLC,33.038836,-80.159011,320 Azalea Square Blvd,Summerville,SC,29483,Berkeley County,US,Match,Exact,605116791,R,45,015,020710,3034
1245321363,"WALL DRUGS OF JOHNSONVILLE, INC.",33.811468,-79.446366,330 S Hampton Ave,Johnsonville,SC,29555,Florence County,US,Match,Non_Exact,28900451,R,45,041,001902,2030
1245333913,SOUTH CAROLINA CVS PHARMACY LLC,34.105904,-80.903065,9796 US Hwy 1,Columbia,SC,29223,Richland County,US,No_Match,,,,,,,
1245333921,SOUTH CAROLINA CVS PHARMACY LLC,34.002264,-81.106115,2401 Sunset Blvd,West Columbia,SC,29169,Lexington County,US,Match,Exact,644865211,L,45,063,020505,1022
1245390707,"TARRYTOWN EXPOCARE SC, INC.",34.035084,-81.121212,121 Executive Center Dr,Columbia,SC,29210,Lexington County,US,Match,Exact,70073512,R,45,063,020510,2020
1245755909,WALGREEN CO,34.050551,-81.102676,1436 St Andrews Rd,Columbia,SC,29210,Richland County,US,No_Match,,,,,,,
1255358404,WAL-MART STORES EAST LP,34.906381,-82.331035,3023 K Wade Hampton Blvd,Taylors,SC,29687,Greenville County,US,Match,Exact,38344302,L,45,045,001700,1010
1255358412,WAL-MART STORES EAST LP,32.935555,-80.038544,7412 US Hwy 78,Charleston,SC,29406,Charleston County,US,No_Match,,,,,,,
1255390993,"INTRAMED PLUS, INC",34.010909,-81.129617,100 Saluda Ridge Ct,West Columbia,SC,29169,Lexington County,US,Match,Exact,648716095,R,45,063,020506,2037
1255416616,PLANTATION PHARMACY AT ELLIS OAKS,32.749772,-79.969264,761 Daniel Ellis Dr,Charleston,SC,29412,Charleston County,US,Match,Exact,605841425,L,45,019,001902,3029
1255434791,SOUTH CAROLINA CVS PHARMACY LLC,33.839402,-78.667231,1204 Marina Bay Dr,North Myrtle Beach,SC,29582,Horry County,US,Match,Exact,639634777,R,45,051,040300,1019
1255434932,SOUTH CAROLINA CVS PHARMACY LLC,33.874851,-78.619357,1465 Hwy 17,Little River,SC,29566,Horry County,US,Match,Non_Exact,647273273,L,45,051,040103,1000
1255490314,SOUTH CAROLINA CVS PHARMACY LLC,33.322844,-80.413119,8527 Old State Rd,Holly Hill,SC,29059,Orangeburg County,US,No_Match,,,,,,,
1255634069,FAMILY PHARMACY AT GMH,33.379655,-79.285808,1211 Richmond Dr,Georgetown,SC,29440,Georgetown County,US,Match,Exact,29002801,R,45,043,920302,2072
1255731097,PUBLIX SUPER MARKETS INC,34.209758,-82.187628,1220 Mathis Rd,Greenwood,SC,29649,Greenwood County,US,Match,Exact,50813655,R,45,047,970303,2029
1255857108,WALGREEN CO,34.537948,-80.583209,608 S Hampton St,Kershaw,SC,29067,Lancaster County,US,Match,Non_Exact,606678783,L,45,057,010202,3020
1255860243,"PUBLIX SUPER MARKETS, INC.",34.70445,-82.257309,375 C Harrison Bridge Rd,Simpsonville,SC,29680,Greenville County,US,Tie,,,,,,,
1255872107,SHRI AARNA INC,34.176332,-79.813366,2407 Hyde Cir,Florence,SC,29501,Florence County,US,Match,Exact,28877509,R,45,041,000202,4000
1265045322,PTVP,34.936619,-82.004634,8002 Warren H Abernathy Hwy 8002,Spartanburg,SC,29301,Spartanburg County,US,No_Match,,,,,,,
1265417927,GREENVILLE HEALTH CORPORATION,34.853903,-82.326313,92 Patewood Dr,Greenville,SC,29615,Greenville County,US,Match,Exact,38336116,L,45,045,001808,2001
1265459416,WAL-MART STORES EAST LP,34.194517,-79.822118,260 N Beltline Dr,Florence,SC,29501,Florence County,US,Match,Non_Exact,653317927,L,45,041,000201,2064
1265462659,PALMETTO INFUSION SERVICES LLC,34.006732,-81.123959,3101 Sunset Blvd,West Columbia,SC,29169,Lexington County,US,Match,Exact,70050640,L,45,063,020506,1014
1265535942,SOUTH CAROLINA CVS PHARMACY LLC,34.789202,-82.695379,102 N Palmetto St,Liberty,SC,29657,Pickens County,US,Match,Non_Exact,26161566,R,45,077,011004,2026
1265819205,KARMA HEALTHCARE LLC,35.119382,-81.519305,305 W Cherokee St,Blacksburg,SC,29702,Cherokee County,US,Tie,,,,,,,
1265953251,RPVR CORPORATION,34.506032,-82.010051,507 N Harper St,Laurens,SC,29360,Laurens County,US,Tie,,,,,,,
1275025942,PREFERRED PHARMACY LLC,32.298417,-80.936656,103W Commerce Pl W,Okatie,SC,29909,Beaufort County,US,Match,Exact,646819890,L,45,013,002110,1027
1275030645,LONGS DRUGSTORES OF SC INC,34.930636,-81.001011,492 Lakeshore Pkwy,Rock Hill,SC,29730,York County,US,Match,Exact,636586620,L,45,091,060200,2007
1275150815,HEALTH CARE PARTNERS PHARMACY,34.186003,-79.370615,1707 Palmetto Pointe Rd,Marion,SC,29571,Marion County,US,Match,Exact,28787767,L,45,067,950200,3071
1275548364,WALGREEN CO,32.266437,-80.859434,NA US 278,Bluffton,SC,29910,Beaufort County,US,No_Match,,,,,,,
1275596249,DELTA PHARMACY INC,33.194899,-80.004882,202 Factory St,Moncks Corner,SC,29461,Berkeley County,US,No_Match,,,,,,,
1275596876,"MULLINS DISCOUNT DRUG, INC",34.204008,-79.254145,125 E Laurel St,Mullins,SC,29574,Marion County,US,Tie,,,,,,,
1275671851,BHP LAX LLC,34.716796,-80.794938,1036 Sara Dr,Lancaster,SC,29720,Lancaster County,US,Match,Exact,40704267,L,45,057,010900,2052
1275686628,HUSAM BADR,34.827661,-82.398598,1714 Augusta St,Greenville,SC,29605,Greenville County,US,Match,Exact,38329430,R,45,045,001501,2012
1275929218,DELTA OF ISLE OF PALMS LLC,32.788926,-79.787132,1507 U Palm Blvd,Isle Of Palms,SC,29451,Charleston County,US,Match,Exact,647987783,L,45,019,004901,1003
1275937104,WAL-MART STORES EAST LP,34.952665,-81.016677,1233 Cherry Rd,Rock Hill,SC,29732,York County,US,Match,Non_Exact,19807205,L,45,091,060803,1007
1285027391,RON GROUP,32.838802,-79.86439,562 State Rd S-10-97,Mount Pleasant,SC,29464,Charleston County,US,No_Match,,,,,,,
1285162305,RICHBURG DISCOUNT PHARMACY LLC,34.744678,-81.032105,3100 Commerce Dr,Richburg,SC,29729,Chester County,US,Match,Exact,637985650,L,45,023,020700,1052
1285649350,WALGREEN CO,33.588771,-79.012621,720 Mansion Ct,Murrells Inlet,SC,29576,Horry County,US,Match,Exact,630908152,R,45,051,051406,3011
1285649368,WALGREEN CO,34.89745,-82.339161,2700 Wade Hampton Blvd,Greenville,SC,29615,Greenville County,US,Match,Exact,38368304,R,45,045,001803,3010
1285649376,WALGREEN CO,34.850065,-82.449609,6035 White Horse Rd,Greenville,SC,29611,Greenville County,US,Match,Exact,651991197,L,45,045,003705,1018
1285651448,WAL-MART STORES EAST LP,34.023043,-80.954764,5321 State Hwy 12,Columbia,SC,29206,Richland County,US,No_Match,,,,,,,
1285674622,PUBLIX SUPER MARKETS INC,34.529648,-82.635032,1637 E Greenville St,Anderson,SC,29621,Anderson County,US,Match,Non_Exact,628005315,L,45,007,000300,3018
1285731786,SOUTH CAROLINA CVS PHARMACY LLC,34.04063,-80.997548,3669 US Hwy 1,Columbia,SC,29204,Richland County,US,No_Match,,,,,,,
1285746602,"TRIANGLE PHARMACY AND HOME MEDICAL EQUIPMENT, INC.",33.98402,-81.072171,1209 D Ave,West Columbia,SC,29169,Lexington County,US,No_Match,,,,,,,
1285826974,INGLES MARKETS INC,34.508934,-82.744618,4120 Highway 24,Anderson,SC,29626,Anderson County,US,Match,Exact,25485522,R,45,007,012001,1018
1285912170,"COLONIAL FAMILY PRACTICE, LLC",33.934651,-80.355083,327 Broad St,Sumter,SC,29150,Sumter County,US,Match,Exact,647234921,R,45,085,002000,3008
1295038438,CORAM ALTERNATE SITE SERVICES INC,32.901779,-80.026415,5942 Core Ave,Charleston,SC,29406,Charleston County,US,Match,Exact,108798367,R,45,019,003105,2076
1295258358,WALGREEN CO,34.283244,-81.596819,1211 Wilson Rd,Newberry,SC,29108,Newberry County,US,Match,Exact,45372528,L,45,071,950204,1050
1295289742,WATERWAY PHARMACY LLC,33.875014,-78.673481,182 Gateway Dr,Little River,SC,29566,Horry County,US,Match,Exact,29073888,R,45,051,040103,2003
1295359818,SCOTLAND MEMORIAL HOSPITAL INC,34.631212,-79.695914,200 Century Dr,Bennettsville,SC,29512,Marlboro County,US,Match,Exact,25856598,R,45,069,960301,1043
1295740140,INGLES MARKETS INC,34.888394,-82.403382,1502 Poinsett Hwy,Greenville,SC,29609,Greenville County,US,Match,Exact,38298148,L,45,045,003802,5009
1295752459,WAL-MART STORES EAST LP,34.210218,-82.193137,660 Center St,Greenwood,SC,29649,Greenwood County,US,Match,Exact,50824312,L,45,047,970303,1029
1295838050,SOUTH CAROLINA CVS PHARMACY LLC,34.032695,-81.124808,100 Outlet Pointe Blvd,Columbia,SC,29210,Lexington County,US,Match,Exact,70087773,R,45,063,020510,4018
1295838068,SOUTH CAROLINA CVS PHARMACY LLC,34.633306,-82.783181,7628 Highway 76,Pendleton,SC,29670,Anderson County,US,Match,Non_Exact,646417314,R,45,007,010701,1015
1295840148,MEDICAL UNIVERSITY OF SC,32.746269,-79.968951,656 Ellis Oak Ave,Charleston,SC,29412,Charleston County,US,Match,Non_Exact,605841429,R,45,019,001902,3029
1306002167,PUBLIX SUPER MARKETS INC,32.271871,-80.91588,10 Discovery Dr,Bluffton,SC,29910,Beaufort County,US,No_Match,,,,,,,
1306004478,WALGREEN CO,34.08327,-81.189831,1517 Lake Murray Blvd,Columbia,SC,29212,Lexington County,US,Match,Exact,647269191,R,45,063,021110,2002
1306149950,PUBLIX SUPER MARKETS INC,33.99274,-81.306548,815 Highway 378,Lexington,SC,29072,Lexington County,US,No_Match,,,,,,,
1306164413,PUBLIX SUPER MARKETS INC,32.306783,-80.973098,540 Nickel Plate Rd,Hardeeville,SC,29927,Jasper County,US,No_Match,,,,,,,
1306187653,WAL-MART STORES EAST LP,34.8696,-82.690908,2619 Gentry Mem Hwy,Pickens,SC,29671,Pickens County,US,Match,Exact,26206266,L,45,077,010403,1018
1306369335,WALGREEN CO,33.008069,-80.044708,212 St James Ave,Goose Creek,SC,29445,Berkeley County,US,No_Match,,,,,,,
1306467766,LAMAR FAMILY PHARMACY,34.169588,-80.065259,103 S Railroad Ave,Lamar,SC,29069,Darlington County,US,No_Match,,,,,,,
1306829668,PROFESSIONAL PHARMACY AT MT VIEW IN,34.95261,-82.237445,10 Companion Ct,Greer,SC,29651,Greenville County,US,Match,Exact,38343324,R,45,045,002507,2025
1306864111,WAL-MART STORES EAST LP,32.951629,-80.154547,5300 Patron Pl,Ladson,SC,29456,Dorchester County,US,No_Match,,,,,,,
1306916481,MEDICINE CABINET OF LAKE CITY,33.879167,-79.759781,218 N Ron Mcnair Blvd,Lake City,SC,29560,Florence County,US,Tie,,,,,,,
1306940119,"SOUTH CAROLINA CVS PHARMACY, L.L.C.",33.92568,-80.337835,19 Baker St,Sumter,SC,29150,Sumter County,US,Match,Exact,202704422,R,45,085,002000,3041
1306949177,SOUTH CAROLINA CVS PHARMACY LLC,32.394329,-80.685629,1499 Ribaut Rd,Port Royal,SC,29935,Beaufort County,US,Match,Exact,639639761,R,45,013,000700,4027
1306950381,COLE-MCGILL ENTERPRISES INC,34.788563,-82.694335,27 N Commerce St,Liberty,SC,29657,Pickens County,US,Tie,,,,,,,
1306953096,F & L DRUG STORE INC,33.939071,-79.934262,306 Church St,Olanta,SC,29114,Florence County,US,Match,Exact,28868049,R,45,041,002400,3021
1316020589,OCEAN LAKES PHARMACY INC,33.624453,-78.969335,1600 N Hwy 17,Surfside Beach,SC,29575,Horry County,US,No_Match,,,,,,,
1316040181,SOUTH CAROLINA CVS PHARMACY LLC,34.191804,-82.217277,2008 Hwy 72 W,Greenwood,SC,29649,Greenwood County,US,Match,Non_Exact,649670981,L,45,047,970304,1005
1316121262,"SOUTH CAROLINA CVS PHARMACY, L.L.C.",32.989086,-80.100401,9637 Highway 78,Ladson,SC,29456,Charleston County,US,Match,Non_Exact,632659200,R,45,019,003106,4015
1316135999,SELF REGIONAL HEALTHCARE,34.173972,-82.157332,305 Alexander Ave W,Greenwood,SC,29646,Greenwood County,US,No_Match,,,,,,,
1316155823,SOUTH CAROLINA CVS PHARMACY LLC,34.008112,-81.195725,5108 Sunset Blvd,Lexington,SC,29072,Lexington County,US,No_Match,,,,,,,
1316188105,WALGREEN CO,34.690609,-82.833411,1100 Tiger Blvd,Clemson,SC,29631,Pickens County,US,Match,Exact,26172566,L,45,077,011205,2002
1316326887,WAL-MART STORES EAST LP,32.980978,-80.128452,3678 Ladson Rd,Ladson,SC,29456,Dorchester County,US,Match,Exact,633671835,L,45,035,010814,1012
1316339906,SENECA PHARMACY,34.689986,-82.992002,290 Applewood Center Pl,Seneca,SC,29678,Oconee County,US,Match,Exact,646636691,R,45,073,030802,2006
1316374507,AIDS HEALTHCARE FOUNDATION,34.029126,-81.025789,3024 Farrow Rd,Columbia,SC,29203,Richland County,US,Match,Exact,637228801,R,45,079,000900,2033
1316415755,BABAJI LLC,34.914301,-82.01118,2998 Reidville Rd,Spartanburg,SC,29301,Spartanburg County,US,Match,Exact,19493637,R,45,083,021902,4015
1326013517,GILDER & WEEKS INC,34.417298,-81.811313,111 Reeder St,Joanna,SC,29351,Laurens County,US,Match,Exact,44435006,L,45,059,920900,1023
1326141094,SOUTH CAROLINA CVS PHARMACY LLC,34.013289,-81.009459,1579 Manning Ave,Columbia,SC,29204,Richland County,US,Match,Exact,608831436,L,45,079,001300,2000
1326250952,WALGREEN CO,34.178383,-82.152278,1227 Main St S,Greenwood,SC,29646,Greenwood County,US,Match,Exact,50821512,R,45,047,970801,1015
1326366493,WAL-MART STORES EAST LP,35.12299,-81.085714,5274 Highway 557,Clover,SC,29710,York County,US,No_Match,,,,,,,
1336161082,SOUTH CAROLINA CVS PHARMACY LLC,32.825569,-79.819405,1330 Horseshoe Bnd,Mount Pleasant,SC,29464,Charleston County,US,Match,Exact,619882680,R,45,019,004619,1001
1336215581,SARATHIRX LLC,34.516089,-82.65395,101 Broad St,Anderson,SC,29621,Anderson County,US,Match,Exact,25451191,L,45,007,000200,2027
1336217132,GEORGE PARKS PHARMACY INC,33.494716,-81.970994,524 Georgia Ave,North Augusta,SC,29841,Aiken County,US,Match,Exact,64985262,L,45,003,020802,1070
1336242007,SOUTH CAROLINA CVS PHARMACY LLC,34.707411,-81.188772,227 Willa Ct,Chester,SC,29706,Chester County,US,Match,Exact,40563656,L,45,023,020602,1060
1336242015,SOUTH CAROLINA CVS PHARMACY LLC,35.018631,-81.961642,1926 Boiling Springs Rd,Boiling Springs,SC,29316,Spartanburg County,US,Match,Exact,645286689,L,45,083,022406,3012
1336409846,SOUTH CAROLINA CVS PHARMACY LLC,33.655312,-78.98106,196 Sayebrook Pkwy,Myrtle Beach,SC,29588,Horry County,US,No_Match,,,,,,,
1336424167,LAKE WYLIE HEALTH INVESTORS INC,35.121571,-81.079939,320 Inland Cove Ct,Clover,SC,29710,York County,US,Match,Exact,19808215,R,45,091,061709,2021
1336504695,WALGREEN CO .,34.156915,-79.752748,960 Pamplico Hwy,Florence,SC,29505,Florence County,US,Match,Exact,28887198,R,45,041,000600,2007
1336506427,CARESOUTH CAROLINA INC,34.331433,-79.427245,198 Latimer St,Latta,SC,29565,Dillon County,US,Match,Exact,28828308,R,45,033,970602,2007
1336512623,PUBLIX SUPER MARKETS INC,33.998483,-81.043435,1236 Pulaski St,Columbia,SC,29201,Richland County,US,Match,Exact,604790301,R,45,079,001600,1072
1336745561,SOCASTEE PHARMACY,33.686334,-78.978625,4229 State Hwy 707,Myrtle Beach,SC,29588,Horry County,US,Match,Exact,29058486,R,45,051,051503,1012
1346267598,WAL-MART STORES EAST LP,33.212575,-79.985303,3000 Mariners Way,Moncks Corner,SC,29461,Berkeley County,US,Match,Exact,606760983,R,45,015,020504,1006
1346343027,SOUTH CAROLINA CVS PHARMACY LLC,34.883114,-82.702801,205 Hampton Ave,Pickens,SC,29671,Pickens County,US,Match,Exact,640613124,R,45,077,010502,2045
1346343787,SOUTH CAROLINA CVS PHARMACY LLC,34.893575,-82.290338,2411 Hudson Rd,Greer,SC,29650,Greenville County,US,Match,Exact,653327969,R,45,045,002613,1008
1346343886,SOUTH CAROLINA CVS PHARMACY LLC,34.226335,-82.195081,1938 Montague Avenue Ext,Greenwood,SC,29649,Greenwood County,US,Match,Non_Exact,50824278,R,45,047,970301,2008
1346412939,INGLES MARKETS INC,34.803364,-82.599913,411 Pelzer Hwy,Easley,SC,29642,Pickens County,US,Match,Exact,26212476,L,45,077,010901,2011
1346571460,PALMETTO FAMILY PHARMACY,34.943758,-81.031736,1013 Oakland Ave,Rock Hill,SC,29732,York County,US,Match,Exact,19791134,L,45,091,060700,2015
1346723004,"EAU CLAIRE COOPERTIVE HEALTH CENTER, INC.",33.988925,-81.080715,221 N Brown St,West Columbia,SC,29169,Lexington County,US,Match,Exact,70055296,L,45,063,020505,1082
1346760592,HARLEYVILLE DRUG LLC,33.216249,-80.447961,131 Kate St,Harleyville,SC,29448,Dorchester County,US,Match,Exact,178453338,L,45,035,010302,2054
1356368500,WAL-MART STORES EAST LP,34.684479,-83.004155,NA US 123,Seneca,SC,29672,Oconee County,US,No_Match,,,,,,,
1356377402,WALGREEN CO,33.388027,-79.288596,1120 N Fraser St,Georgetown,SC,29440,Georgetown County,US,No_Match,,,,,,,
1356393771,BRIDGERS DRUG STORE & GIFTS LLC,34.182074,-79.401212,525 Tom Gasque Ave,Marion,SC,29571,Marion County,US,No_Match,,,,,,,
1356444038,SOUTH CAROLINA CVS PHARMACY LLC,34.046071,-81.03324,1300 Columbia College Dr,Columbia,SC,29203,Richland County,US,Match,Exact,638981324,R,45,079,000200,2001
1356487607,SOUTH CAROLINA DEPT OF MENTAL HEALTH ACCOUNTING OFFICE,34.082304,-80.995424,282 Faison Dr,Columbia,SC,29203,Richland County,US,Match,Exact,635634001,L,45,079,010806,1002
1356490148,THE FINKLIN CORPORATION,34.035331,-81.041805,3714 US Hwy 21,Columbia,SC,29203,Richland County,US,No_Match,,,,,,,
1356510820,WALGREEN CO,33.907648,-81.222814,1903 S Lake Dr,Lexington,SC,29073,Lexington County,US,Match,Non_Exact,636701317,R,45,063,020908,2016
1356674378,"SOUTH CAROLINA CVS PHARMACY, L.L.C.",33.76115,-78.816083,930 82nd Pkwy,Myrtle Beach,SC,29572,Horry County,US,Match,Exact,607104835,R,45,051,050303,1036
1356726798,DELTA OF HOLLYWOOD LLC,32.735771,-80.237685,6219 Bevington Rd,Hollywood,SC,29449,Charleston County,US,Match,Exact,108789835,L,45,019,002504,1041
1356767461,INGLES MARKETS INC,34.521229,-82.656643,1901 N Main St,Anderson,SC,29621,Anderson County,US,Match,Non_Exact,25486284,L,45,007,000900,2037
1356906903,PHV LLV,34.696519,-81.192486,1538 State Hwy 97,Chester,SC,29706,Chester County,US,Match,Exact,40570579,R,45,023,020500,3000
1366065468,LEXINGTON PHARMACY LLC,33.980846,-81.298723,104 Scarborough Dr,Lexington,SC,29072,Lexington County,US,Match,Exact,632435125,R,45,063,021045,1000
1366457434,WALGREEN CO,33.98362,-81.095742,2242 US Hwy 1,Lexington,SC,29073,Lexington County,US,No_Match,,,,,,,
1366457459,WALGREEN CO,34.270978,-80.609406,2425 US Hwy 601,Camden,SC,29020,Kershaw County,US,No_Match,,,,,,,
1366459323,WALGREEN CO,34.476447,-82.652395,2201 S Murray Ave,Anderson,SC,29624,Anderson County,US,Match,Non_Exact,640545449,L,45,007,000702,2029
1366469520,WAL-MART STORES EAST LP,33.027036,-80.057415,12 Chelsea Ct,Goose Creek,SC,29445,Berkeley County,US,Match,Exact,100745686,R,45,015,020719,2005
1366546160,"SOUTH CAROLINA CVS PHARMACY, L.L.C.",34.782791,-82.299643,213 E Butler Rd,Mauldin,SC,29662,Greenville County,US,Tie,,,,,,,
1366597270,MOON'S DRUG STORE,34.666994,-83.096939,102 W North Ave,Westminster,SC,29693,Oconee County,US,No_Match,,,,,,,
1366640955,"SOUTH CAROLINA CVS PHARMACY, L.L.C.",32.78375,-79.935898,51 George St,Charleston,SC,29401,Charleston County,US,Match,Exact,639341269,L,45,019,000400,2017
1366642209,WAL-MART STORES EAST LP,33.91379,-81.227266,1766 S Lake Dr,Lexington,SC,29073,Lexington County,US,Match,Non_Exact,645304500,L,45,063,021035,1020
1366774408,HEROLDS PHARMACY LLC,32.815401,-80.043519,2073 Charlie Hall Blvd,Charleston,SC,29414,Charleston County,US,Match,Exact,615118053,L,45,019,002613,2006
1366830408,WALGREEN CO,34.185919,-79.76717,702 S Irby St,Florence,SC,29501,Florence County,US,Tie,,,,,,,
1376057570,"GOLDEN TOWN PHARMACY, LLC",33.993782,-79.202055,2841 Hwy 501,Aynor,SC,29511,Horry County,US,No_Match,,,,,,,
1376558445,WALGREEN CO,32.212881,-80.722704,21 Hatton Pl,Hilton Head Island,SC,29926,Beaufort County,US,Match,Exact,87645257,R,45,013,010400,1015
1376558452,WALGREEN CO,0,0,NA NA,,,,,,No_Match,,,,,,,
1376558460,WALGREEN CO,32.905384,-80.089,9956 State Hwy 642,North Charleston,SC,29420,Charleston County,US,No_Match,,,,,,,
1376560532,WAL-MART STORES EAST LP,32.72053,-79.96767,1231 Folly Rd,Charleston,SC,29412,Charleston County,US,No_Match,,,,,,,
1376583716,PUBLIX SUPER MARKETS INC,34.865108,-82.346363,300 Pelham Rd,Greenville,SC,29615,Greenville County,US,Match,Exact,624818607,R,45,045,001810,1000
1376614594,"PHARMACY ASSOCIATES OF ANDERSON, INC",34.480349,-82.648246,2630 S Main St,Anderson,SC,29624,Anderson County,US,Match,Non_Exact,25453333,R,45,007,000702,2048
1376646067,SOUTH CAROLINA CVS PHARMACY LLC,34.690189,-82.827155,1301 Tiger Blvd,Clemson,SC,29631,Pickens County,US,Match,Exact,26224499,L,45,077,011204,3000
1376669184,CLEMSON UNIVERSITY,34.675792,-82.83577,836 McMillan Rd,Clemson,SC,29634,Pickens County,US,No_Match,,,,,,,
1386066132,"DILLON COMMUNITY PHARMACY, INC.",34.420873,-79.372214,240 W Washington St,Dillon,SC,29536,Dillon County,US,Tie,,,,,,,
1386277846,CAROLINA PHARMACY INC.,34.186848,-79.364909,1955 State Rd S-34-41,Marion,SC,29571,Marion County,US,No_Match,,,,,,,
1386603025,"INTRAMED PLUS, INC",34.830655,-82.30647,1114 Woodruff Rd,Greenville,SC,29607,Greenville County,US,Match,Exact,635858548,R,45,045,002805,1037
1386659233,INGLES MARKETS INC,35.062641,-81.999402,4521 Highway 9,Inman,SC,29349,Spartanburg County,US,Match,Non_Exact,640576660,R,45,083,022405,2002
1386661544,WAL-MART STORES EAST LP,33.847229,-79.764407,NA US 52,Lake City,SC,29560,Florence County,US,No_Match,,,,,,,
1386747079,"SOUTH CAROLINA CVS PHARMACY, L.L.C.",35.109383,-81.216698,605 Bethel St,Clover,SC,29710,York County,US,Match,Exact,19785669,R,45,091,061801,2019
1386855377,WALGREEN CO,33.971998,-81.076925,U1525 Charleston Hwy,West Columbia,SC,29169,Lexington County,US,No_Match,,,,,,,
1386872604,"SOUTH CAROLINA CVS PHARMACY, L.L.C.",33.586382,-79.051482,10005 Tournament Blvd,Murrells Inlet,SC,29576,Horry County,US,No_Match,,,,,,,
1396701447,"OPTUM INFUSION SERVICES 200, INC.",32.901859,-80.025951,5919 Core Ave,Charleston,SC,29406,Charleston County,US,Match,Exact,108798367,L,45,019,003105,2038
1396796769,KENS THRIFTEE PHARMACY INC,34.766176,-83.065564,109 N College St,Walhalla,SC,29691,Oconee County,US,Tie,,,,,,,
1396842233,CARE PHARMACY LLC,33.380665,-79.287746,705 N Fraser St,Georgetown,SC,29440,Georgetown County,US,Match,Non_Exact,28961070,L,45,043,920601,4008
1396848156,SOUTH CAROLINA CVS PHARMACY LLC,34.531512,-82.663392,2803 N Main St,Anderson,SC,29621,Anderson County,US,Match,Non_Exact,25450480,L,45,007,001000,2005
1396848164,SOUTH CAROLINA CVS PHARMACY LLC,33.956761,-80.9318,NA US 378,Columbia,SC,29209,Richland County,US,No_Match,,,,,,,
1396848883,SOUTH CAROLINA CVS PHARMACY LLC,34.788896,-82.481322,3460 Highway 153,Piedmont,SC,29673,Anderson County,US,Match,Non_Exact,640778457,L,45,007,010105,1007
1396890638,WALGREEN CO,34.429094,-79.361571,1400 US Hwy 301 N,Dillon,SC,29536,Dillon County,US,Match,Exact,28832129,R,45,033,970301,1036
1396962395,WAL-MART STORES EAST LP,34.031475,-81.108542,1301 Bush River Rd,Columbia,SC,29210,Lexington County,US,Match,Exact,622144481,R,45,063,020510,4001
1396988291,WAL-MART STORES EAST LP,33.779035,-78.987866,156 Myrtle Ridge Ave,Conway,SC,29526,Horry County,US,No_Match,,,,,,,
1407204613,WAL-MART STORES EAST LP,33.013711,-80.240338,112 Mayrant St,Summerville,SC,29483,Dorchester County,US,Match,Exact,178458348,R,45,035,010503,2000
1407959174,SOUTH CAROLINA CVS PHARMACY LLC,34.176227,-82.149227,1413 Main St S,Greenwood,SC,29646,Greenwood County,US,Match,Exact,50821500,R,45,047,970801,1014
1407959273,SOUTH CAROLINA CVS PHARMACY LLC,35.691716,-82.016403,178 Robinson Rd,Marion,NC,28752,McDowell County,US,Match,Exact,35912568,R,37,111,970300,2022
1417184334,WAL-MART STORES EAST LP,34.980215,-81.089142,4875 101 Old York Rd,Rock Hill,SC,29732,York County,US,No_Match,,,,,,,
1417356320,HOLLY STREET DRUGS LLC,33.325986,-80.417698,904 Holly St,Holly Hill,SC,29059,Orangeburg County,US,Match,Exact,19224625,L,45,075,010200,1058
1417385899,FIVE POINTS COOPERATIVE PHARMACY,34.006814,-81.019435,1235 Harden St,Columbia,SC,29205,Richland County,US,Match,Exact,71821642,L,45,079,003100,1045
1417952425,"ORANGE CUT RATE DRUG STORE, INC.",33.488219,-80.864975,1061 Broughton St,Orangeburg,SC,29115,Orangeburg County,US,Match,Exact,19217615,L,45,075,011300,1042
1427069095,SAVITZ DRUG STORE INC,34.162812,-82.382739,810 Greenwood St W,Abbeville,SC,29620,Abbeville County,US,No_Match,,,,,,,
1427070176,SOUTH CAROLINA CVS PHARMACY LLC,32.792351,-80.02973,2037 Sam Rittenberg Blvd,Charleston,SC,29407,Charleston County,US,Match,Exact,108855146,L,45,019,002701,1050
1427146059,BARNWELL HEALTH INVESTORS,33.254729,-81.361617,168 Wren St,Barnwell,SC,29812,Barnwell County,US,Match,Exact,19068459,L,45,011,970300,3002
1427151109,SOUTH CAROLINA CVS PHARMACY LLC,33.666097,-79.83268,300 N Jackson St,Kingstree,SC,29556,Williamsburg County,US,Tie,,,,,,,
1427151190,SOUTH CAROLINA CVS PHARMACY LLC,34.930216,-81.895292,1422 Union St,Spartanburg,SC,29302,Spartanburg County,US,Match,Exact,19478374,R,45,083,021100,4009
1427572106,WALGREEN CO,34.167198,-81.3576,1423 Chapin Rd,Chapin,SC,29036,Lexington County,US,Match,Exact,70068358,L,45,063,021204,1011
1437176682,WAL-MART STORES EAST LP,33.860042,-79.088727,2718 W Hwy 501,Conway,SC,29527,Horry County,US,No_Match,,,,,,,
1437252111,SOUTH CAROLINA CVS PHARMACY LLC,34.954964,-82.127558,101 Locust St,Lyman,SC,29365,Spartanburg County,US,Match,Exact,19511299,L,45,083,023104,2009
1437252871,SOUTH CAROLINA CVS PHARMACY LLC,33.884975,-78.688227,2380 E Hwy 9,Little River,SC,29566,Horry County,US,No_Match,,,,,,,
1437252970,SOUTH CAROLINA CVS PHARMACY LLC,34.859333,-82.263636,4100 A Pelham Rd,Greenville,SC,29615,Greenville County,US,No_Match,,,,,,,
1437565843,WAL-MART STORES EAST LP,33.577336,-81.940064,1080 Edgefield Rd,North Augusta,SC,29860,Aiken County,US,Match,Exact,65034883,R,45,003,020500,3002
1437586294,EHRHARDT PHARMACY LLC,33.103892,-81.013863,12856 US Hwy 601,Ehrhardt,SC,29081,Bamberg County,US,No_Match,,,,,,,
1437769494,"PUBLIX SUPER MARKETS, INC",34.724194,-82.293861,1402 W Georgia Rd,Simpsonville,SC,29680,Greenville County,US,Match,Non_Exact,620932870,L,45,045,003014,1017
1447277694,WAL-MART STORES EAST LP,34.282935,-81.593933,2803 Main St,Newberry,SC,29108,Newberry County,US,Match,Exact,45383128,L,45,071,950204,1010
1447284161,THE KROGER CO,34.087251,-81.183699,7464 Woodrow St,Irmo,SC,29063,Lexington County,US,Match,Exact,70048781,R,45,063,021112,1010
1447353123,SOUTH CAROLINA CVS PHARMACY LLC,33.798476,-81.89061,227 Apple Sq,Edgefield,SC,29824,Edgefield County,US,No_Match,,,,,,,
1447354246,"SOUTH CAROLINA CVS PHARMACY, L.L.C.",32.835264,-80.044743,2194 Doris Dr,Charleston,SC,29414,Charleston County,US,Match,Exact,617586666,L,45,019,002611,2000
1447398375,HARTSVILLE DRUG CO INC,34.375619,-80.075392,123 W Home Ave,Hartsville,SC,29550,Darlington County,US,Tie,,,,,,,
1447408331,WALGREEN CO,34.392105,-80.073032,1079 5th St,Hartsville,SC,29550,Darlington County,US,Match,Non_Exact,78391892,R,45,031,010300,3024
1447756762,"ASSOCIATED MEDICAL SPECIALISTS, PA",33.756185,-78.818863,8121 Rourk St,Myrtle Beach,SC,29572,Horry County,US,Match,Exact,29066956,R,45,051,050303,1045
1447793161,PUBLIX SUPER MARKETS INC,33.582536,-79.045943,101 Chenoa Dr,Murrells Inlet,SC,29576,Horry County,US,Match,Exact,630963781,L,45,051,051609,1009
1457366528,WALGREEN CO,32.830367,-79.835286,1013 James Nelson Rd,Mount Pleasant,SC,29464,Charleston County,US,Match,Exact,650135512,L,45,019,004612,4004
1457366544,WALGREEN CO,32.922053,-80.665195,779 Robertson Blvd,Walterboro,SC,29488,Colleton County,US,No_Match,,,,,,,
1457436628,HEALTH CARE PARTNERS PHARMACY,33.850218,-79.055806,1600 Main St,Conway,SC,29526,Horry County,US,Match,Non_Exact,29040624,R,45,051,070200,2029
1457450389,HARSEYS PHARMACY,34.690074,-79.898477,8 Chesterfield Hwy,Cheraw,SC,29520,Chesterfield County,US,Match,Exact,14331479,R,45,025,950504,2026
1457455255,"SOUTH CAROLINA CVS PHARMACY, L.L.C.",33.977141,-81.075176,1201 Charleston Hwy,West Columbia,SC,29169,Lexington County,US,Match,Exact,642895923,L,45,063,020202,1006
1457560328,WALGREEN CO,34.855413,-82.320588,903 Pelham Rd,Greenville,SC,29615,Greenville County,US,Match,Exact,38352726,L,45,045,002804,1022
1457625428,INGLES MARKETS INC,35.024128,-81.963236,2210 Boiling Springs Rd,Boiling Springs,SC,29316,Spartanburg County,US,Match,Exact,647234465,L,45,083,022406,3012
1467000588,OCONEE NEIGHBORHOOD PHARMACY LLC,34.687536,-82.988775,11082 N Radio Station Rd,Seneca,SC,29678,Oconee County,US,Match,Non_Exact,646636688,L,45,073,030802,2007
1467467530,WALGREEN CO,34.943715,-81.030916,1008 Oakland Ave,Rock Hill,SC,29732,York County,US,Match,Exact,19791134,R,45,091,060700,2014
1467467548,WALGREEN CO,32.412687,-80.648601,170 Sea Island Pkwy,Beaufort,SC,29907,Beaufort County,US,No_Match,,,,,,,
1467467555,WALGREEN CO,34.86758,-82.359803,2310 F E North St,Greenville,SC,29607,Greenville County,US,Match,Exact,38302400,R,45,045,001204,1000
1467469411,WALGREEN CO,33.904005,-80.378757,1998 McCrays Mill Rd,Sumter,SC,29150,Sumter County,US,No_Match,,,,,,,
1467479626,WAL-MART STORES EAST LP,34.714142,-82.251381,3940 Grandview Dr,Simpsonville,SC,29680,Greenville County,US,Match,Exact,642891404,R,45,045,003013,2008
1467492801,PUBLIX SUPER MARKETS INC,34.80344,-82.625647,765 Black Snake Rd,Easley,SC,29640,Pickens County,US,Match,Exact,26216057,R,45,077,010803,2032
1467551390,CHAPIN HEALTH INVESTORS,34.16354,-81.355086,150 Amicks Ferry Rd,Chapin,SC,29036,Lexington County,US,Match,Exact,70068357,L,45,063,021204,1009
1467581819,CATAWBA INDIAN HLTH CTR PHARMACY,34.944681,-80.913363,2821 Sturgis Rd,Rock Hill,SC,29730,York County,US,Match,Exact,617315015,L,45,091,061202,1006
1467617258,WALGREEN CO,34.507771,-82.742562,4113 Highway 24,Anderson,SC,29626,Anderson County,US,Match,Exact,25464367,L,45,007,012002,1005
1467818922,PUBLIX SUPER MARKETS INC,33.758185,-78.96331,2009 Oakheart Rd,Myrtle Beach,SC,29579,Horry County,US,Match,Exact,630549000,R,45,051,060206,1013
1467851501,PAWLEYS ISLAND PHARMACY OF LITCHFIELD LLC,33.485516,-79.098137,160 Willbrook Blvd,Pawleys Island,SC,29585,Georgetown County,US,Match,Exact,645245932,L,45,043,920506,2007
1467934810,"CORNERSTONE ALLIANCE, LLC",34.153934,-81.334625,732 Chapin Rd,Chapin,SC,29036,Lexington County,US,Match,Exact,626114958,R,45,063,021204,2058
1477065704,WAL-MART STORES EAST LP,33.905897,-80.379012,339 Pinewood Rd,Sumter,SC,29150,Sumter County,US,Match,Exact,202700216,R,45,085,001704,2009
1477072874,CHERRY GROVE DRUG LLC,33.839553,-78.645513,1029 Sea Mountain Hwy,North Myrtle Beach,SC,29582,Horry County,US,No_Match,,,,,,,
1477110047,RURAL HEALTH SERVICES INC,33.465254,-81.687085,120 Darlington Dr,Aiken,SC,29803,Aiken County,US,Match,Exact,65013868,R,45,003,022001,4018
1477562262,HAWTHORNE CAMDEN PHARMACY LLC,34.276734,-80.609506,2507 US Hwy 521,Camden,SC,29020,Kershaw County,US,No_Match,,,,,,,
1477568327,INGLES MARKETS INC,34.702445,-82.93759,117 Carpenter Dr,Seneca,SC,29672,Oconee County,US,Match,Exact,25672399,L,45,073,030601,3005
1477570638,WAL-MART STORES EAST LP,32.823029,-80.079391,3969 W Ashley Cir,Charleston,SC,29414,Charleston County,US,Match,Non_Exact,635789062,R,45,019,005602,1001
1477593812,PUBLIX SUPER MARKETS INC,32.4131,-80.650605,2 Inlet Rd,Beaufort,SC,29907,Beaufort County,US,Match,Exact,625201879,L,45,013,000903,1022
1477656163,SOUTH CAROLINA CVS PHARMACY LLC,34.020212,-80.971696,4711 State Hwy 12,Columbia,SC,29206,Richland County,US,No_Match,,,,,,,
1477656239,SOUTH CAROLINA CVS PHARMACY LLC,34.919977,-81.994419,2417 Reidville Rd,Spartanburg,SC,29301,Spartanburg County,US,Match,Exact,19529639,L,45,083,022005,3006
1477691962,HAWTHORNE WINNSBORO PHARMACY INC.,34.381592,-81.086251,124 N Congress St,Winnsboro,SC,29180,Fairfield County,US,Tie,,,,,,,
1477709756,WALGREEN CO,34.838628,-82.356,1905 Laurens Rd,Greenville,SC,29607,Greenville County,US,Match,Exact,38303611,L,45,045,004400,2037
1477787562,WALGREEN CO,35.121467,-81.084609,175 104 Highway 274,Clover,SC,29710,York County,US,Match,Non_Exact,640934321,R,45,091,061709,2021
1477892644,SOUTH END PHARMACY,34.901576,-81.027932,1381 Albright Rd,Rock Hill,SC,29730,York County,US,Match,Exact,19792789,L,45,091,061301,1012
1477950632,"RURAL HEALTH SERVICES, INC",33.575305,-81.712295,146 Claflin Dr,Aiken,SC,29801,Aiken County,US,Match,Exact,648334158,R,45,003,021402,2001
1477957397,WAL-MART STORES EAST LP,33.47104,-80.859029,488 Amelia Vlg Sw Rd,Orangeburg,SC,29115,Orangeburg County,US,Match,Exact,605667260,R,45,075,011300,2016
1477969053,PUBLIX SUPER MARKETS INC,32.814559,-79.997224,1317 UT Sam Rittenberg Blvd,Charleston,SC,29407,Charleston County,US,Match,Exact,605838856,L,45,019,002605,1002
1487108031,PUBLIX SUPER MARKETS INC,34.167162,-81.356838,1409 Chapin Rd,Chapin,SC,29036,Lexington County,US,Match,Exact,70068358,L,45,063,021204,1011
1487142956,CARESOUTH CAROLINA INC,34.501599,-79.862361,711 Main St,Society Hill,SC,29593,Darlington County,US,Match,Non_Exact,635571243,R,45,031,010100,4030
1487682878,MILRUSH LLC,34.582949,-80.907105,498 State Hwy 99,Great Falls,SC,29055,Chester County,US,No_Match,,,,,,,
1487757241,SOUTH CAROLINA CVS PHARMACY LLC,34.454379,-81.876724,200 Jacobs Hwy,Clinton,SC,29325,Laurens County,US,Match,Exact,642775516,L,45,059,920800,2003
1487781217,WALGREEN CO,34.895545,-82.197401,400 S 12,Greer,SC,29651,Spartanburg County,US,No_Match,,,,,,,
1487790812,"VCORP,LLC DBA BLUFFTON PHARMACY",32.241155,-80.859733,180 Bluffton Rd,Bluffton,SC,29910,Beaufort County,US,Match,Exact,87641922,L,45,013,002107,3027
1487849949,WALGREEN CO,33.014074,-80.238014,100 Cantley Dr,Summerville,SC,29483,Dorchester County,US,Match,Exact,178468765,R,45,035,010604,1043
1487854204,WAL-MART STORES EAST LP,33.563212,-81.767378,3605 Richland Ave W,Aiken,SC,29801,Aiken County,US,Match,Exact,65034582,R,45,003,021300,3144
1487931341,LITTLE RIVER MEDICAL CENTER PHARMACY,33.762923,-78.963808,4204 Carolina Exchange Dr,Myrtle Beach,SC,29579,Horry County,US,Match,Exact,633642374,R,45,051,060209,2018
1497159305,WAL-MART STORES EAST LP,34.176242,-79.811522,2502 2nd Loop Rd,Florence,SC,29501,Florence County,US,Match,Exact,647395031,L,45,041,000202,4000
1497278501,WALGREEN CO,34.664606,-83.095207,228 E Main St,Westminster,SC,29693,Oconee County,US,Tie,,,,,,,
1497772669,SAMS EAST INC,34.075176,-81.155442,331 Harbison Blvd,Columbia,SC,29212,Lexington County,US,Match,Exact,647269170,L,45,063,021112,2014
1497809479,CAROLINA HEALTH CENTERS,34.173128,-82.157621,1405 Pkwy,Greenwood,SC,29646,Greenwood County,US,Match,Non_Exact,50817589,L,45,047,970401,3064
1497863062,COMMUNITY PHARMACY OF FORT MILL INC.,35.021774,-80.960864,202 Springcrest Dr,Fort Mill,SC,29715,York County,US,Match,Exact,640940155,R,45,091,061004,3003
1508008202,DELTA OF CHARLESTON INC,32.78633,-79.929186,40 Laurens St,Charleston,SC,29401,Charleston County,US,Match,Exact,108807757,R,45,019,005100,1026
1508127739,WAL-MART STORES EAST LP,34.641065,-79.702812,198 State Rd S-35-709,Bennettsville,SC,29512,Marlboro County,US,No_Match,,,,,,,
1508223645,BERKELEY HOME PHARMACY LLC,33.185784,-80.000214,1006 Old Highway 52,Moncks Corner,SC,29461,Berkeley County,US,Match,Non_Exact,651700120,R,45,015,020506,2011
1508303330,WAL-MART STORES EAST LP,32.409054,-80.632053,40 Airport Cir,Beaufort,SC,29907,Beaufort County,US,Match,Exact,646911429,R,45,013,000902,3034
1508347931,SOUTH CAROLINA CVS PHARMACY LLC,33.758522,-78.856407,568 International Dr,Myrtle Beach,SC,29579,Horry County,US,Match,Exact,648911682,L,45,051,060310,3049
1508816802,GREENVILLE HEALTH CORPORATION,34.821714,-82.41426,706 Grove Rd,Greenville,SC,29605,Greenville County,US,Match,Exact,38349489,L,45,045,002103,2008
1508903394,ROSA CLARK MEDICAL CENTER,34.693825,-82.988173,301 Memorial Dr,Seneca,SC,29672,Oconee County,US,Match,Exact,646636720,R,45,073,030601,1028
1508938879,CVS PHARMACY #02923,34.027521,-81.030118,1 S-40-2091,Columbia,SC,29203,Richland County,US,No_Match,,,,,,,
1508969270,SOUTH CAROLINA CVS PHARMACY LLC,33.727561,-78.869706,1303 38th Ave N,Myrtle Beach,SC,29577,Horry County,US,Match,Exact,637237810,L,45,051,050500,3000
1508994872,BEAUFORT-JASPER-HAMPTON COMPREHENSIVE HEALTH SERVICE INC,32.399659,-80.68548,1320 Ribaut Rd,Beaufort,SC,29902,Beaufort County,US,No_Match,,,,,,,
1518060284,SOUTH CAROLINA CVS PHARMACY LLC,33.518068,-81.717101,2065 Whiskey Rd,Aiken,SC,29803,Aiken County,US,Match,Exact,647688466,L,45,003,021204,1006
1518060292,SOUTH CAROLINA CVS PHARMACY LLC,33.994263,-81.227494,5608 Sunset Blvd,Lexington,SC,29072,Lexington County,US,Match,Exact,647270589,L,45,063,021032,2021
1518233535,STUCKEY PHARMACY LLC,33.750965,-79.447485,251 State Hwy 41,Hemingway,SC,29554,Williamsburg County,US,No_Match,,,,,,,
1518313329,PUBLIX SUPER MARKETS INC,33.749935,-78.81591,7915 N Kings Hwy,Myrtle Beach,SC,29572,Horry County,US,Match,Non_Exact,29059409,L,45,051,050303,1055
1518417351,ALLENDALE COUNTY HOSPITAL BOARD,32.96626,-81.245851,874 Boundary St W,Fairfax,SC,29827,Allendale County,US,No_Match,,,,,,,
1518596873,WALGREEN CO,33.979872,-81.305154,2424 Augusta Hwy,Lexington,SC,29072,Lexington County,US,Match,Exact,70037988,L,45,063,021045,1006
1518989268,SOUTH CAROLINA CVS PHARMACY LLC,34.938431,-80.980606,1871 202 Springsteen Rd,Rock Hill,SC,29730,York County,US,No_Match,,,,,,,
1528007465,PUBLIX SUPER MARKETS INC,34.806155,-82.226985,2709 Woodruff Rd,Simpsonville,SC,29681,Greenville County,US,Match,Exact,646642919,L,45,045,002814,2007
1528041373,MED MART LEX,33.98748,-81.242096,314 Columbia Ave,Lexington,SC,29072,Lexington County,US,Match,Exact,70050923,R,45,063,021029,2004
1528079175,CROMER MEDICAL SERVICES INC,34.285319,-81.597927,1310 Wilson Rd,Newberry,SC,29108,Newberry County,US,Match,Exact,45372527,R,45,071,950204,1052
1528085776,WAL-MART STORES EAST LP,34.075415,-81.151414,750 Saturn Pkwy,Columbia,SC,29212,Lexington County,US,Match,Exact,70088917,L,45,063,021111,3008
1528085784,WAL-MART STORES EAST LP,32.937277,-80.690668,287 W Side Ln,Walterboro,SC,29488,Colleton County,US,Match,Non_Exact,637563761,L,45,029,970401,3096
1528104767,WALGREEN CO,34.941531,-82.259017,1301 J W Wade Hampton Blvd,Greer,SC,29650,Greenville County,US,Match,Exact,38375830,L,45,045,002503,4016
1528161205,SOUTH CAROLINA CVS PHARMACY LLC,33.246911,-81.366557,1750 Jackson St,Barnwell,SC,29812,Barnwell County,US,Match,Exact,19071732,R,45,011,970300,3032
1528229390,WALGREEN CO.,33.515086,-81.714649,2188 Whiskey Rd,Aiken,SC,29803,Aiken County,US,Match,Exact,64991507,L,45,003,021604,1037
1528319548,U-SAVE-IT PHARMACY INC,35.025552,-81.894969,2310 Chesnee Hwy,Spartanburg,SC,29303,Spartanburg County,US,Match,Exact,642939409,R,45,083,021402,2006
1528388279,NYES PHARMACY OF CONWAY INC,33.839038,-79.059473,907 Bell St,Conway,SC,29526,Horry County,US,Match,Exact,636589022,L,45,051,070300,2018
1528512357,SHELBY PHARMACY LLC,34.837352,-82.610153,401 Hillcrest Dr,Easley,SC,29640,Pickens County,US,Match,Exact,26168016,L,45,077,010805,2028
1538108444,PUBLIX SUPER MARKETS INC,33.497574,-81.961806,310 E Martintown Rd,North Augusta,SC,29841,Aiken County,US,No_Match,,,,,,,
1538174628,WALGREEN CO,34.890789,-82.406617,1701 Poinsett Hwy,Greenville,SC,29609,Greenville County,US,No_Match,,,,,,,
1538186788,WAL-MART STORES EAST LP,34.935367,-81.985381,121 Dorman Center Dr,Spartanburg,SC,29301,Spartanburg County,US,No_Match,,,,,,,
1538195029,SANDHILLS MEDICAL FOUNDATION,34.225018,-80.688676,36 State Rd S-28-318,Lugoff,SC,29078,Kershaw County,US,No_Match,,,,,,,
1538252671,LONGS DRUGSTORES OF SC INC,33.995624,-80.987611,600 Kilbourne Rd,Columbia,SC,29205,Richland County,US,Match,Exact,71828732,R,45,079,002500,4000
1538263330,"SOUTH CAROLINA CVS PHARMACY, L.L.C.",34.822523,-82.414093,701 Mills Ave,Greenville,SC,29605,Greenville County,US,Match,Exact,38300635,L,45,045,002103,2008
1538347893,GREENVILLE HEALTH CORPORATION,34.918732,-82.24118,841 S Buncombe Rd,Greer,SC,29650,Greenville County,US,Match,Non_Exact,639517761,L,45,045,002503,1013
1538449707,"L&R LAX, LLC",34.689994,-80.78519,1780 Airport Rd,Lancaster,SC,29720,Lancaster County,US,Match,Exact,40694439,L,45,057,010500,3023
1548275142,PIGGLY WIGGLY OF MANNING INC.,33.690852,-80.212837,2 Sunset Dr,Manning,SC,29102,Clarendon County,US,Match,Exact,71432460,R,45,027,960701,1000
1548275613,WALGREEN CO,33.802711,-78.731012,4036 S Hwy 17,North Myrtle Beach,SC,29582,Horry County,US,No_Match,,,,,,,
1548275639,WALGREEN CO,34.715348,-82.256373,630 Fairview Rd,Simpsonville,SC,29680,Greenville County,US,Match,Exact,38328162,L,45,045,003013,2011
1548287709,WAL-MART STORES EAST LP,35.050272,-81.987985,4011 Highway 9,Boiling Springs,SC,29316,Spartanburg County,US,Match,Non_Exact,19496903,L,45,083,022405,2010
1548328743,K-TUCK L L C,34.341279,-79.166045,298 State Hwy 9,Lake View,SC,29563,Dillon County,US,No_Match,,,,,,,
1548364342,"SOUTH CAROLINA CVS PHARMACY, L.L.C.",34.097706,-80.856207,134 State Rd S-40-2033,Columbia,SC,29229,Richland County,US,No_Match,,,,,,,
1548374242,TEGA CAY FAMILY PHARMACY,35.062287,-80.993477,871 Stockbridge Dr,Fort Mill,SC,29708,York County,US,Match,Exact,645568396,L,45,091,061010,2001
1548414543,THE KROGER CO,33.509636,-81.958451,1520 Knox Ave,North Augusta,SC,29841,Aiken County,US,Match,Exact,64985103,L,45,003,020702,1005
1548769219,"LONG'S DRUGSTORES OF SOUTH CAROLINA, INC.",34.842926,-82.416231,801 Pendleton St,Greenville,SC,29601,Greenville County,US,Match,Exact,38299851,L,45,045,000500,1005
1558301994,PUBLIX SUPER MARKETS INC,32.277512,-80.87529,95 Baylor Dr,Bluffton,SC,29910,Beaufort County,US,Match,Exact,647860185,R,45,013,002106,3020
1558309534,BLYTHEWOOD PROFESSIONAL DRUG COMPANY INC.,34.216946,-80.97863,131 State Rd S-40-1367,Blythewood,SC,29016,Richland County,US,No_Match,,,,,,,
1558366930,"ORANGE CUT RATE DRUG STORE, INC.",33.514614,-80.858643,1612 St Matthews Rd,Orangeburg,SC,29118,Orangeburg County,US,No_Match,,,,,,,
1558376640,WALGREEN CO,34.209965,-82.176951,1005 Montague Ave,Greenwood,SC,29649,Greenwood County,US,Match,Exact,640566427,L,45,047,970303,2021
1558378505,WALGREEN CO,32.999781,-80.182803,47 Old Trolley Rd,Summerville,SC,29485,Dorchester County,US,No_Match,,,,,,,
1558388710,WAL-MART STORES EAST LP,33.528638,-80.890552,2896 North Rd,Orangeburg,SC,29118,Orangeburg County,US,No_Match,,,,,,,
1558688226,"HARRIS TEETER, LLC",32.878127,-79.80806,1541 Highway 41,Mount Pleasant,SC,29466,Charleston County,US,Match,Non_Exact,605898388,R,45,019,004615,3018
1558756072,GUSTAFSONS APOTHECARY LLC,34.101867,-80.857408,5 Mallet Hill Rd,Columbia,SC,29223,Richland County,US,Match,Exact,71851513,R,45,079,011413,3000
1558884593,WALGREEN CO,33.031736,-80.059908,527 St James Ave,Goose Creek,SC,29445,Berkeley County,US,No_Match,,,,,,,
1568402428,PUBLIX SUPER MARKETS INC,32.693348,-79.965631,1833 Old Folly Rd,Charleston,SC,29412,Charleston County,US,No_Match,,,,,,,
1568489722,WAL-MART STORES EAST LP,34.941486,-80.956768,2510 Dave Lyle Blvd,Rock Hill,SC,29730,York County,US,No_Match,,,,,,,
1568527752,GREELEYVILLE PHARMACY,33.583923,-79.989539,45 Pine Tree St,Greeleyville,SC,29056,Williamsburg County,US,Match,Exact,29224139,L,45,089,970700,2021
1568544591,COMMUNITY MEDICAL CENTER,33.44389,-80.421832,123 Cable Ave,Vance,SC,29163,Orangeburg County,US,Match,Exact,648031673,L,45,075,010302,1009
1568697621,"SOUTH CAROLINA CVS PHARMACY, L.L.C.",32.963099,-80.166321,1660 Old Trolley Rd,Summerville,SC,29485,Dorchester County,US,Match,Non_Exact,637292311,R,45,035,010808,5005
1568745081,PUBLIX SUPER MARKETS INC,33.102488,-80.126109,205 S Cross Creek Dr,Summerville,SC,29486,Berkeley County,US,No_Match,,,,,,,
1568934677,WELL CENTER PHARMACY LLC,34.190395,-79.767966,421 S Irby St,Florence,SC,29501,Florence County,US,Tie,,,,,,,
1578607248,BEAUFORT-JASPER-HAMPTON COMPREHENSIVE HEALTH SERVICE INC,32.353347,-80.893409,951 Okatie Hwy,Okatie,SC,29909,Beaufort County,US,Match,Exact,647859737,R,45,013,002202,1067
1578607289,WATTSVILLE DRUGS INC,34.51962,-81.999712,32 Sirrine St,Laurens,SC,29360,Laurens County,US,Match,Exact,44454162,L,45,059,920503,1026
1578666335,SOUTH CAROLINA CVS PHARMACY LLC,32.79148,-80.037077,2152 Savannah Hwy,Charleston,SC,29414,Charleston County,US,Match,Exact,108843714,R,45,019,002701,1076
1578798658,"SOUTH CAROLINA CVS PHARMACY, L.L.C.",32.742144,-79.935632,989 Harbor View Rd,Charleston,SC,29412,Charleston County,US,Match,Exact,639250085,L,45,019,002006,3020
1578911772,SAMS EAST INC,34.126663,-80.876611,483 Town Center Pl,Columbia,SC,29229,Richland County,US,Match,Exact,624924811,R,45,079,011418,1009
1578994786,SAMS EAST INC,34.188784,-79.824104,2399 David H Mcleod Blvd,Florence,SC,29501,Florence County,US,Match,Exact,640937072,R,45,041,001100,1039
1588002497,INGLES MARKETS INC,34.825475,-82.544962,4845 Calhoun Mem Hwy,Easley,SC,29642,Pickens County,US,No_Match,,,,,,,
1588016687,"PALMETTO INFUSION SERVICES, LLC",32.97497,-80.072661,9276 Medical Plaza Dr,Charleston,SC,29406,Charleston County,US,Match,Exact,639947354,R,45,019,003115,3008
1588709828,SUMMERTON DRUGS COMPOUNDING AND DISPENSARY,33.608318,-80.350786,11 District,Summerton,SC,29148,Clarendon County,US,No_Match,,,,,,,
1588761423,POWERS PHARMACY OF LORIS INC,34.056517,-78.89086,4019 Meeting St,Loris,SC,29569,Horry County,US,Match,Exact,29047970,L,45,051,020202,1090
1588771927,"FETTER HEALTH CARE NETWORK, INC",32.794212,-79.937905,44 Nassau St,Charleston,SC,29403,Charleston County,US,Match,Exact,108807032,R,45,019,000900,2012
1588927057,HARRIS TEETER LLC,35.062773,-80.993645,769 Stockbridge Dr,Fort Mill,SC,29708,York County,US,Match,Exact,645568396,L,45,091,061010,2001
1598774366,HAWTHORNE PHARMACY SUNSET INC.,34.005468,-81.117974,2854 Sunset Blvd,West Columbia,SC,29169,Lexington County,US,Match,Exact,651710464,R,45,063,020506,3014
1598858987,"THE MEDICINE MART OF WEST COLUMBIA, INC",34.000415,-81.080597,908 Mohawk Dr,West Columbia,SC,29169,Lexington County,US,Match,Exact,70054926,R,45,063,020509,2020
1598868366,SOUTH CAROLINA CVS PHARMACY LLC,34.185605,-79.76786,711 S Irby St,Florence,SC,29501,Florence County,US,Match,Exact,28878914,R,45,041,001000,1046
1609821875,WALGREEN CO,34.31691,-79.899251,458 Gilchrist Rd,Darlington,SC,29532,Darlington County,US,Match,Exact,640567461,R,45,031,011202,1014
1609898352,SOUTH CAROLINA CVS PHARMACY LLC,34.119992,-80.877927,10186 US Hwy 1,Columbia,SC,29229,Richland County,US,No_Match,,,,,,,
1609899988,SOUTH CAROLINA CVS PHARMACY LLC,34.189237,-79.832811,NA I 20 Business,Florence,SC,29501,Florence County,US,No_Match,,,,,,,
1609943901,NEW HORIZON FAMILY HEALTH SERVICES INC,34.9464,-82.223022,111 A Berry Ave,Greer,SC,29651,Greenville County,US,Match,Exact,38311019,L,45,045,002504,1001
1609979376,SOUTH CAROLINA CVS PHARMACY LLC,34.916314,-82.316932,3234 Wade Hampton Blvd,Taylors,SC,29687,Greenville County,US,Match,Exact,38368255,R,45,045,001803,1000
1609979384,SOUTH CAROLINA CVS PHARMACY LLC,33.94545,-81.168776,2908 Emanuel Church Rd,West Columbia,SC,29170,Lexington County,US,Match,Exact,640814859,R,45,063,021033,1000
1609982636,JAMISONS PHARMACY INC,33.504764,-80.8464,1222 Goff Ave,Orangeburg,SC,29115,Orangeburg County,US,Match,Exact,19248663,R,45,075,010801,1002
1609989219,"HARRIS TEETER, LLC",32.746618,-79.970062,651 Ellis Oak Ave,Charleston,SC,29412,Charleston County,US,Match,Non_Exact,108889965,L,45,019,001902,3029
1619070398,SOUTH CAROLINA CVS PHARMACY LLC,33.019945,-80.089272,199 Trinity Pl,Ladson,SC,29456,Berkeley County,US,Match,Exact,636580427,L,45,015,020717,3004
1619074119,SOUTH CAROLINA CVS PHARMACY LLC,34.060112,-78.885108,4766 Broad St,Loris,SC,29569,Horry County,US,Match,Exact,29046097,R,45,051,020202,2061
1619371606,"HOWARD'S PHARMACY, LLC",34.739014,-82.255422,124 NE Main St,Simpsonville,SC,29681,Greenville County,US,Tie,,,,,,,
1619375839,WALGREEN CO,32.804037,-79.890039,387 Johnnie Dodds Blvd,Mount Pleasant,SC,29464,Charleston County,US,Match,Exact,605697416,L,45,019,004607,2011
1619485992,REDEC PHARMACY,35.006506,-80.932537,212 Dobys Bridge Rd N,Fort Mill,SC,29715,York County,US,No_Match,,,,,,,
1619490646,WALGREEN CO,34.938764,-81.988806,215 Westgate Mall Dr,Spartanburg,SC,29301,Spartanburg County,US,No_Match,,,,,,,
1619916558,PUBLIX SUPER MARKETS INC,33.51319,-81.716943,921 Christee Pl,Aiken,SC,29803,Aiken County,US,Match,Exact,64991501,R,45,003,021204,1041
1619994860,WAL-MART STORES EAST LP,33.98195,-81.101307,2367 Augusta Rd,West Columbia,SC,29169,Lexington County,US,Match,Exact,644843828,L,45,063,020601,4008
1619994878,WAL-MART STORES EAST LP,34.114745,-80.888675,10098 US Hwy 1,Columbia,SC,29223,Richland County,US,No_Match,,,,,,,
1629083712,WALGREEN CO,33.02375,-80.085764,98 Alliance Dr,Goose Creek,SC,29445,Berkeley County,US,Match,Exact,629431410,L,45,015,020720,1000
1629095872,WAL-MART STORES EAST LP,33.036298,-80.154992,1315 N Main St,Summerville,SC,29483,Berkeley County,US,Match,Non_Exact,640604885,R,45,015,020714,2001
1629172424,"SOUTH CAROLINA CVS PHARMACY, L.L.C.",34.139898,-80.914006,4300 State Rd S-40-83,Columbia,SC,29223,Richland County,US,No_Match,,,,,,,
1629411384,PUBLIX SUPER MARKETS INC,34.687211,-82.818638,1380 Tiger Blvd,Clemson,SC,29631,Pickens County,US,Match,Exact,26214417,L,45,077,011205,3001
1629434071,PALMETTO FAMILY PHARMACY REGENT PARK,35.076772,-80.934526,1046 Regent Pkwy,Fort Mill,SC,29715,York County,US,Match,Exact,618822997,R,45,091,061007,1001
1629449624,MORGAN'S DRUGS,33.40133,-81.422286,12935 Main St,Williston,SC,29853,Barnwell County,US,Match,Exact,19065520,L,45,011,970102,2003
1629472758,INGLES MARKETS INC,34.516716,-82.484985,426 S Main St,Belton,SC,29627,Anderson County,US,Match,Exact,25446883,R,45,007,011402,2028
1629526777,KERSHAW FAMILY PHARMACY,34.537508,-80.582767,8539 Kershaw Camden Hwy,Kershaw,SC,29067,Lancaster County,US,Match,Exact,40700961,R,45,057,010202,3027
1639184708,WALGREEN CO,32.735981,-79.970023,1734 Combahee St,Charleston,SC,29412,Charleston County,US,Match,Exact,108812358,R,45,019,002002,3062
1639184724,WALGREEN CO,33.034167,-80.161363,1114 N Main St,Summerville,SC,29483,Berkeley County,US,Match,Non_Exact,652241242,L,45,015,020710,3030
1639196892,WAL-MART STORES EAST LP,33.703432,-78.915413,1760 Pine Island Rd,Myrtle Beach,SC,29577,Horry County,US,Match,Exact,635645757,R,45,051,050902,1026
1639204738,"MORGAN'S PHARMACY OF GILBERT, LLC",33.922878,-81.397894,300 Broad St,Gilbert,SC,29054,Lexington County,US,Match,Exact,70037424,L,45,063,021305,1039
1639267230,"DANIELS' PHARMACY, INC.",33.322465,-81.142591,456 US Hwy 321,Denmark,SC,29042,Bamberg County,US,No_Match,,,,,,,
1639273436,"SOUTH CAROLINA CVS PHARMACY, L.L.C.",34.836715,-82.279196,1509 Roper Mountain Rd,Greenville,SC,29615,Greenville County,US,Match,Exact,38359318,L,45,045,002819,2013
1639332976,WALGREEN CO,34.884677,-82.703802,101 Hampton Ave,Pickens,SC,29671,Pickens County,US,Match,Exact,26157827,R,45,077,010502,2018
1639390941,PUBLIX SUPER MARKETS INC,34.849935,-82.395103,10 N Church St,Greenville,SC,29601,Greenville County,US,Match,Exact,38301039,R,45,045,000200,1033
1639562945,TIDEWATER PHARMACY & MEDICAL SUPPLY LLC,32.807609,-79.888128,890 Seabrook Ln,Mount Pleasant,SC,29464,Charleston County,US,No_Match,,,,,,,
1639577166,WALGREEN CO,32.785488,-79.935949,370 King St,Charleston,SC,29401,Charleston County,US,Match,Exact,108807454,R,45,019,000400,2002
1639593304,WAL-MART STORES EAST LP,33.63282,-78.961358,125 Maryport Dr,Myrtle Beach,SC,29575,Horry County,US,Match,Exact,645297078,L,45,051,051403,3032
1639737349,MEDICAL UNIVERSITY HOSPITAL AUTHORITY,32.782864,-79.952196,21 Courtenay Dr,Charleston,SC,29401,Charleston County,US,Match,Exact,108806599,L,45,019,000600,1021
1639796022,"WALL DRUGS OF PAMPLICO, INC.",33.989798,-79.566042,616 S Walnut St,Pamplico,SC,29583,Florence County,US,Match,Exact,28870442,R,45,041,001800,1013
1649210089,PUBLIX SUPER MARKETS INC,32.914222,-80.108913,8419 Dorchester Rd,North Charleston,SC,29420,Dorchester County,US,Match,Exact,647840289,L,45,035,010820,1005
1649227133,LANDRUM DRUG INC,35.174798,-82.19041,104 W Rutherford St,Landrum,SC,29356,Spartanburg County,US,Tie,,,,,,,
1649250333,HEDGEMARK BRENTWOOD PHARMACY INC,32.762494,-79.982975,1911 Maybank Hwy,Charleston,SC,29412,Charleston County,US,Match,Exact,622566037,L,45,019,001901,3021
1649285735,WALGREEN CO,34.176026,-79.809254,2415 2nd Loop Rd,Florence,SC,29501,Florence County,US,Match,Exact,28877707,R,45,041,001300,3002
1649319039,FOWLERS PHARMACY 1 INC,34.838615,-82.356799,1900 Laurens Rd,Greenville,SC,29607,Greenville County,US,Match,Exact,38303611,R,45,045,001302,1025
1649359928,"HOMECHOICE PARTNERS, INC",34.907557,-82.102708,1552 E Main St,Duncan,SC,29334,Spartanburg County,US,Match,Non_Exact,652355986,L,45,083,023406,3000
1649467374,WALGREEN CO,34.825682,-82.568272,5611 Calhoun Mem Hwy,Easley,SC,29642,Pickens County,US,No_Match,,,,,,,
1649518036,"BLUE WORLD, INC.",35.109281,-81.215364,705 Bethel St,Clover,SC,29710,York County,US,Match,Exact,19797907,R,45,091,061801,2017
1649650375,"FAMILY HEALTH CENTERS, INC",33.311607,-81.145204,300 W Mayfield,Denmark,SC,29042,Bamberg County,US,Match,Exact,18954721,R,45,009,960102,1010
1649670969,PRIVILEGE PHARMACY INC,33.956012,-81.11884,3300 Platt Springs Rd,West Columbia,SC,29170,Lexington County,US,Match,Exact,70073747,L,45,063,020602,2009
1649797168,WALGREEN CO,32.401013,-80.685749,1294 Ribaut Rd,Beaufort,SC,29902,Beaufort County,US,Match,Exact,87606603,L,45,013,000700,5006
1659346542,ADVANCED MEDICAL GROUP LLC,33.516806,-81.845739,2821 Augusta Rd,Warrenville,SC,29851,Aiken County,US,Match,Exact,64987710,L,45,003,021101,2043
1659351427,"MILL STREET DRUGS, INC",33.688299,-80.212381,409 S Mill St,Manning,SC,29102,Clarendon County,US,Match,Non_Exact,71432534,L,45,027,960701,1002
1659386506,INGLES MARKETS INC,34.792323,-82.690525,147 Kay Holcombe Rd,Liberty,SC,29657,Pickens County,US,Match,Exact,26220350,L,45,077,011005,1026
1659398816,WAL-MART STORES EAST LP,34.556364,-82.682776,3905 Liberty Hwy,Anderson,SC,29621,Anderson County,US,Match,Exact,25465582,L,45,007,011100,1022
1659465151,"RADHEY, LLC",34.951957,-81.930353,176 N Liberty St,Spartanburg,SC,29306,Spartanburg County,US,Match,Non_Exact,19491385,R,45,083,021200,1082
1659470433,MEDICAL UNIVERSITY HOSPITAL AUTHORITY,32.784128,-79.944319,134 Rutledge Ave,Charleston,SC,29403,Charleston County,US,Match,Exact,639336642,R,45,019,000600,1018
1659474146,SOUTH CAROLINA CVS PHARMACY LLC,34.026314,-81.037711,2800 State Hwy 277,Columbia,SC,29201,Richland County,US,No_Match,,,,,,,
1659474344,SOUTH CAROLINA CVS PHARMACY LLC,34.212829,-80.255812,423 S Main St,Bishopville,SC,29010,Lee County,US,Match,Non_Exact,79593444,L,45,061,920202,2043
1659474419,SOUTH CAROLINA CVS PHARMACY LLC,33.483697,-80.871536,1586 John C Calhoun Dr,Orangeburg,SC,29115,Orangeburg County,US,Match,Exact,19217786,L,45,075,011300,1069
1659474583,"PHARMACY CONSULTANTS, LLC",35.002238,-81.935785,120 Corporate Dr,Spartanburg,SC,29303,Spartanburg County,US,Match,Exact,19492945,R,45,083,021402,3007
1659475614,BEAM & FLYNN INC,34.192608,-82.159128,202 Seaboard Ave,Greenwood,SC,29646,Greenwood County,US,Match,Exact,50804074,R,45,047,970500,3008
1659511061,MEDICAL UNIVERSITY HOSPITAL AUTHORITY,32.78313,-79.947577,86 Jonathan Lucas St,Charleston,SC,29403,Charleston County,US,Match,Non_Exact,108807292,R,45,019,000600,1020
1659550341,PUBLIX SUPER MARKETS INC,34.912651,-82.42968,5055 Old Buncombe Rd,Greenville,SC,29617,Greenville County,US,Match,Non_Exact,650691429,R,45,045,003803,1023
1659735785,WAL-MART STORES EAST LP,33.683445,-78.958103,3635 Walton Dr,Myrtle Beach,SC,29577,Horry County,US,No_Match,,,,,,,
1659739118,MEIYA LLC,34.84558,-82.340498,520 Haywood Rd,Greenville,SC,29607,Greenville County,US,Match,Exact,38349869,R,45,045,001808,1023
1659808996,INGLES MARKETS INC,34.562894,-82.628021,2415 Highway 81 N,Anderson,SC,29621,Anderson County,US,Match,Non_Exact,25490656,L,45,007,011201,1038
1669021770,"PUBLIX SUPER MARKETS, INC.",32.715672,-79.966699,1701 Grimball Rd,Charleston,SC,29412,Charleston County,US,Match,Exact,108846580,L,45,019,002009,1045
1669546057,JJ BRE INC,33.889964,-80.022038,944 Smith St,Turbeville,SC,29162,Clarendon County,US,Match,Exact,617707562,L,45,027,960100,1034
1669575429,SOUTH CAROLINA CVS PHARMACY LLC,32.923832,-80.66774,105 Dandridge Rd,Walterboro,SC,29488,Colleton County,US,Match,Exact,19155555,L,45,029,970402,3036
1669575437,SOUTH CAROLINA CVS PHARMACY LLC,34.756305,-83.046844,105 Foothills Center Dr,West Union,SC,29696,Oconee County,US,Match,Exact,25682867,L,45,073,030403,2052
1669615860,MJW CORPORATION,33.531211,-81.723077,1538 Whiskey Rd,Aiken,SC,29803,Aiken County,US,No_Match,,,,,,,
1669742144,CHARLESTON ENT ASSOCIATES LLC,32.803211,-80.041405,2310 Henry Tecklenburg Dr,Charleston,SC,29414,Charleston County,US,No_Match,,,,,,,
1669876587,WAL-MART STORES EAST LP,34.912687,-82.428841,5054 Old Buncombe Rd,Greenville,SC,29617,Greenville County,US,Match,Non_Exact,38353353,L,45,045,002301,3000
1669926739,AARNA RX LLC,34.776741,-82.315441,300 W Butler Rd,Mauldin,SC,29662,Greenville County,US,Match,Non_Exact,38311441,L,45,045,002904,1011
1669997441,WALGREEN CO,32.79774,-79.995376,1136 Old Towne Rd,Charleston,SC,29407,Charleston County,US,No_Match,,,,,,,
1669997458,WALGREEN CO,33.979746,-80.961524,6471 US Hwy 76,Columbia,SC,29209,Richland County,US,No_Match,,,,,,,
1679116453,CBTP PARTNERS LLC,34.754909,-82.041701,10196 Highway 221,Woodruff,SC,29388,Spartanburg County,US,Match,Exact,19507489,R,45,083,023500,4027
1679648448,M & D DRUG CO,33.872761,-79.75427,102 E Main St,Lake City,SC,29560,Florence County,US,Tie,,,,,,,
1679666044,CASH & HENDERSON DRUGS INC,35.14934,-81.860605,1051 N Alabama Ave,Chesnee,SC,29323,Spartanburg County,US,Match,Exact,19525573,L,45,083,022306,1001
1679670517,MEDICINE MART OF GAFFNEY,35.076693,-81.648166,210 W Frederick St,Gaffney,SC,29341,Cherokee County,US,No_Match,,,,,,,
1679676449,SOUTH CAROLINA CVS PHARMACY LLC,34.501357,-82.681375,1734 Danbury Ln,Anderson,SC,29624,Anderson County,US,Match,Exact,25478760,R,45,007,000701,2023
1679732069,WALGREEN CO,32.900493,-80.011044,1306 Yeamans Hall Rd,Hanahan,SC,29410,Berkeley County,US,Match,Exact,100769525,R,45,015,020901,1016
1679941108,CARESOUTH,34.633127,-79.697226,1008 Cheraw St,Bennettsville,SC,29512,Marlboro County,US,Match,Exact,25857099,R,45,069,960301,1034
1689032898,WAL-MART STORES EAST LP,33.585759,-79.029003,11015 Hwy 801,Murrells Inlet,SC,29576,Horry County,US,No_Match,,,,,,,
1689691859,SAMS EAST INC,34.828254,-82.30022,1125 Woodruff Rd,Greenville,SC,29607,Greenville County,US,Match,Exact,647215955,R,45,045,002811,2003
1689730913,WHITE PINE LAND COMPANY INC,33.451811,-79.555371,302 E Ashland St,Andrews,SC,29510,Georgetown County,US,Match,Non_Exact,29002315,R,45,043,920204,1037
1689756777,"PROFESSIONAL PHARMACY OF GREER, INC",34.946896,-82.234948,306 Memorial Dr,Greer,SC,29650,Greenville County,US,Match,Exact,38359088,R,45,045,002504,1004
1689777450,SOUTH CAROLINA CVS PHARMACY LLC,34.42941,-79.364577,126 State Hwy 57,Dillon,SC,29536,Dillon County,US,No_Match,,,,,,,
1689778490,SOUTH CAROLINA CVS PHARMACY LLC,32.256234,-80.850026,1010 Fording Island Rd,Bluffton,SC,29910,Beaufort County,US,Match,Exact,636192200,R,45,013,002107,2022
1699214718,"TPC PHARMACY, LLC",32.97497,-80.072661,9272 Medical Plaza Dr,Charleston,SC,29406,Charleston County,US,Match,Exact,639947354,R,45,019,003115,3008
1699709329,THE KROGER CO,34.01834,-80.99216,3400 State Hwy 12,Columbia,SC,29204,Richland County,US,No_Match,,,,,,,
1699797340,SOUTH CAROLINA CVS PHARMACY LLC,33.714262,-78.895508,1145 Seaboard St,Myrtle Beach,SC,29577,Horry County,US,Match,Exact,29104248,L,45,051,050600,1001
1699878363,SOUTH CAROLINA CVS PHARMACY LLC,34.635496,-79.70053,1131 State Hwy 38,Bennettsville,SC,29512,Marlboro County,US,No_Match,,,,,,,
1699900720,"SOUTH CAROLINA CVS PHARMACY, L.L.C.",32.763131,-79.976671,1730 Maybank Hwy,Charleston,SC,29412,Charleston County,US,Match,Exact,618364084,R,45,019,001901,3012
1700309804,WALGREEN CO,33.293372,-81.038575,58 Weimer St,Bamberg,SC,29003,Bamberg County,US,Match,Exact,18955909,R,45,009,960202,2031
1700803954,WAL-MART STORES EAST LP,34.986001,-81.212745,975 Liberty St E,York,SC,29745,York County,US,No_Match,,,,,,,
1700803962,WAL-MART STORES EAST LP,33.784395,-78.770798,10813 Kings Rd,Myrtle Beach,SC,29572,Horry County,US,Match,Exact,631286105,L,45,051,050200,1002
1700879681,GUERINS PHARMACY INC,33.020532,-80.176102,114 W Doty Ave,Summerville,SC,29483,Dorchester County,US,Match,Exact,178459916,R,45,035,010700,2056
1700881943,"LORIS DRUG STORE, INC.",34.056374,-78.889824,4111 Main St,Loris,SC,29569,Horry County,US,Match,Exact,29046077,R,45,051,020202,1079
1700923117,MEDCARE PHARMACY,34.635149,-79.70082,1104 State Hwy 38,Bennettsville,SC,29512,Marlboro County,US,No_Match,,,,,,,
1700945854,SOUTH CAROLINA CVS PHARMACY LLC,33.75219,-79.446777,103 E Andrews St,Hemingway,SC,29554,Williamsburg County,US,Tie,,,,,,,
1700949328,"SOUTH CAROLINA CVS PHARMACY, L.L.C.",33.996615,-81.033374,911 State Hwy 48,Columbia,SC,29202,Richland County,US,No_Match,,,,,,,
1700983202,SOUTH CAROLINA CVS PHARMACY LLC,35.034913,-80.970247,1750 121 Highway 160 W,Fort Mill,SC,29708,York County,US,No_Match,,,,,,,
1710069596,PALMETTO RX SOLUTIONS INC,34.073278,-81.14625,1 Harbison Way,Columbia,SC,29212,Lexington County,US,Match,Exact,601299835,L,45,063,021111,3024
1710086194,CALLAWAY'S PHARMACY,34.090369,-82.586844,529 Savannah St E,Calhoun Falls,SC,29628,Abbeville County,US,No_Match,,,,,,,
1710102553,DIXON POWERS DRUGS,34.510404,-82.64737,705 N Fant St,Anderson,SC,29621,Anderson County,US,Match,Non_Exact,647389860,L,45,007,000200,2063
1710200290,WALGREEN CO,33.998095,-81.017887,1928 Blossom St,Columbia,SC,29205,Richland County,US,Match,Exact,604789337,R,45,079,002700,1003
1710204490,LOWCOUNTRY PHARMACY LLC,34.162786,-79.751906,1521 McClure Ct,Florence,SC,29505,Florence County,US,No_Match,,,,,,,
1710310792,SAMS EAST INC,33.563596,-81.782163,220 Jefferson Davis Hwy,Aiken,SC,29801,Aiken County,US,No_Match,,,,,,,
1710327705,WAL-MART STORES EAST LP,34.882598,-82.3574,2013 Wade Hampton Blvd,Greenville,SC,29615,Greenville County,US,Match,Exact,38357831,L,45,045,001700,4021
1710590278,SOUTH CAROLINA CVS PHARMACY LLC,35.057478,-80.938477,1975 Highway 21st Byp N,Fort Mill,SC,29715,York County,US,No_Match,,,,,,,
1710904966,WAL-MART STORES EAST LP,33.697696,-80.225185,1948 Paxville Hwy,Manning,SC,29102,Clarendon County,US,Match,Exact,638641435,R,45,027,960500,1025
1710909544,SADLER HUGHES APOTHECARY,34.471261,-81.880384,201 S Broad St,Clinton,SC,29325,Laurens County,US,Tie,,,,,,,
1710992805,WALGREEN CO,34.049714,-81.106898,1236 St Andrews Rd,Columbia,SC,29210,Richland County,US,No_Match,,,,,,,
1720005986,WAL-MART STORES EAST LP,34.156815,-79.764462,212 E Grace Dr,Florence,SC,29505,Florence County,US,Match,Non_Exact,650491029,R,45,041,000600,3030
1720006554,WAL-MART STORES EAST LP,32.309091,-80.997208,4319 Independence Blvd,Hardeeville,SC,29927,Jasper County,US,Match,Exact,622215058,L,45,053,950201,2006
1720093818,WALGREEN CO,34.965868,-81.895374,1795 E Main St,Spartanburg,SC,29307,Spartanburg County,US,No_Match,,,,,,,
1720093891,WALGREEN CO,34.019127,-80.989739,3500 State Hwy 12,Columbia,SC,29204,Richland County,US,No_Match,,,,,,,
1720111305,"SOUTH CAROLINA CVS PHARMACY, L.L.C.",33.012852,-80.238568,939 Orangeburg Rd,Summerville,SC,29483,Dorchester County,US,Match,Exact,643295861,L,45,035,010503,2000
1720182520,"SOUTH CAROLINA CVS PHARMACY, L.L.C.",34.894358,-82.432325,4101 Old Buncombe Rd,Greenville,SC,29617,Greenville County,US,Match,Non_Exact,624932059,R,45,045,003804,2030
1720192610,INGLES MARKETS INC,34.493049,-82.031419,923 W Main St,Laurens,SC,29360,Laurens County,US,Match,Non_Exact,44430928,R,45,059,920400,5000
1720390982,WILLIAMSBURG PHARMACY,33.662355,-79.81797,203 Nelson Blvd,Kingstree,SC,29556,Williamsburg County,US,Match,Exact,29205051,L,45,089,970502,4039
1720536048,WAL-MART STORES EAST LP,32.259024,-80.852747,1 Bluffton Rd,Bluffton,SC,29910,Beaufort County,US,Match,Exact,636192182,R,45,013,002107,2024
1720571003,INGLES MARKETS INC,34.782722,-82.484896,10872 Anderson Rd,Piedmont,SC,29673,Anderson County,US,Match,Exact,25462295,L,45,007,010105,1014
1720624927,NEPHRON SC INC,33.901809,-81.041201,4500 12th Street Ext,West Columbia,SC,29172,Lexington County,US,No_Match,,,,,,,
1730106998,WAL-MART STORES EAST LP,32.209083,-80.727537,40 Pembroke Dr,Hilton Head Island,SC,29926,Beaufort County,US,No_Match,,,,,,,
1730129172,PUBLIX SUPER MARKETS INC,34.152913,-80.911491,4609 State Rd S-40-83,Columbia,SC,29223,Richland County,US,No_Match,,,,,,,
1730194820,WALGREEN CO,33.986606,-81.246126,109 Old Chapin Rd,Lexington,SC,29072,Lexington County,US,Match,Non_Exact,70050840,L,45,063,021028,2013
1730282229,SOUTH CAROLINA CVS PHARMACY LLC,32.88127,-79.993437,1518 State Rd S-10-62,North Charleston,SC,29405,Charleston County,US,No_Match,,,,,,,
1730282427,SOUTH CAROLINA CVS PHARMACY LLC,33.997523,-80.99456,3320 Devine St,Columbia,SC,29205,Richland County,US,Match,Exact,604770947,R,45,079,002500,2010
1730311432,BRIDGES & JAMES INC,34.734043,-80.088297,203 Page,Chesterfield,SC,29709,Chesterfield County,US,No_Match,,,,,,,
1730329467,MEDICAL UNIVERSITY HOSPITAL AUTHORITY,32.782873,-79.945446,137 Ashley Ave,Charleston,SC,29401,Charleston County,US,Match,Exact,108807302,L,45,019,000500,1003
1730331182,LONGS DRUGS OF FLORENCE SC INC,34.203369,-79.768877,501 N Irby St,Florence,SC,29501,Florence County,US,Tie,,,,,,,
1730432964,UPSTATE PHARMACY IMA,34.833994,-82.317273,1025 Verdae Blvd C,Greenville,SC,29607,Greenville County,US,Match,Exact,38349851,L,45,045,001900,4000
1730516808,INGLES MARKETS INC,34.991713,-82.469052,1501 Geer Hwy,Travelers Rest,SC,29690,Greenville County,US,Match,Exact,38341731,R,45,045,003903,2002
1730554650,ULMER FAMILY PHARMACY AND WELLNESS CENTER LLC,32.254872,-80.856292,10 Goethe Rd,Bluffton,SC,29910,Beaufort County,US,Match,Exact,87636884,L,45,013,002107,2019
1730558024,WAL-MART STORES EAST LP,33.938419,-80.371122,611 Bultman Dr,Sumter,SC,29150,Sumter County,US,Match,Exact,636585519,R,45,085,000901,2004
1730564733,SUNSHINE PHARMACY SERVICES LLC,33.910206,-81.225211,1852 S Lake Dr,Lexington,SC,29073,Lexington County,US,Match,Non_Exact,645304499,L,45,063,021035,1021
1730604323,WALGREEN CO,34.245923,-80.613205,1100 Gordon St,Camden,SC,29020,Kershaw County,US,Match,Exact,645782269,R,45,055,970800,5107
1730614587,CARESOUTH CAROLINA INC,34.695932,-79.920374,110 Doctors,Cheraw,SC,29520,Chesterfield County,US,No_Match,,,,,,,
1730669789,EAU CLAIRE COOPERATIVE HEALTH CENTER INC.,33.882402,-80.716177,1098 State Rd S-40-56,Eastover,SC,29044,Richland County,US,No_Match,,,,,,,
1740207901,WAL-MART STORES EAST LP,35.088728,-81.662875,107 Walton Dr,Gaffney,SC,29341,Cherokee County,US,Match,Exact,645292354,L,45,021,970301,2004
1740220185,PUBLIX SUPER MARKETS INC,34.869101,-82.256828,319 B The Pkwy,Greer,SC,29650,Greenville County,US,Match,Exact,38327814,R,45,045,002609,2007
1740295690,INGLES MARKETS INC,34.758468,-83.050616,358 Dutch Fork Rd,West Union,SC,29696,Oconee County,US,Match,Exact,25682856,L,45,073,030403,2001
1740370725,GASTON HEALTH ASSOCIATES INC,33.814458,-81.085668,1420 State Rd S-32-65,Gaston,SC,29053,Lexington County,US,No_Match,,,,,,,
1740383504,SOUTH CAROLINA CVS PHARMACY LLC,34.643473,-82.466606,1 Main St,Pelzer,SC,29669,Anderson County,US,Match,Exact,25488106,L,45,007,010300,3019
1740438647,EUTAWVILLE PHARMACY,33.395448,-80.345715,217 Porcher Ave,Eutawville,SC,29048,Orangeburg County,US,Match,Exact,19246596,R,45,075,010102,1046
1740598051,FIRST CHOICE PHARMACY LLC,34.903709,-82.098264,1664 E Main St,Duncan,SC,29334,Spartanburg County,US,Match,Non_Exact,19482887,L,45,083,023406,3002
1740807288,WALTERBORO PHARMACY LLC,32.922008,-80.667018,555 Robertson Blvd,Walterboro,SC,29488,Colleton County,US,No_Match,,,,,,,
1750436754,SHAW CORPORATION,34.861254,-82.37421,3 Prescott St,Greenville,SC,29607,Greenville County,US,Match,Exact,38303014,L,45,045,001205,1007
1750444311,GOOD PHARMACY INC.,34.946208,-81.036932,1236 110 Ebenezer Rd,Rock Hill,SC,29732,York County,US,No_Match,,,,,,,
1750475067,MORAL OF PICKENS INC,34.883695,-82.708412,110 W Main St,Pickens,SC,29671,Pickens County,US,Tie,,,,,,,
1750484523,SOUTH CAROLINA CVS PHARMACY LLC,34.854515,-82.447666,3200 W Blue Ridge Dr,Greenville,SC,29611,Greenville County,US,Match,Non_Exact,38296138,R,45,045,002202,1019
1750527834,PINE RIDGE INVESTORS,33.910389,-81.108801,631 Pine Ridge Dr,West Columbia,SC,29172,Lexington County,US,No_Match,,,,,,,
1750740460,ESTILL COMMUNITY PHARMACY LLC,32.750405,-81.245773,105 Martin Ave,Estill,SC,29918,Hampton County,US,Match,Exact,33118501,L,45,049,920401,2075
1750901674,HARRIS TEETER LLC,34.861585,-82.386289,101 Wade Hampton Blvd,Greenville,SC,29609,Greenville County,US,Match,Exact,38301185,L,45,045,000100,1007
1760585392,SOUTH CAROLINA CVS PHARMACY LLC,33.023735,-80.05429,301 Vixen Blvd,Goose Creek,SC,29445,Berkeley County,US,Match,Exact,100745904,L,45,015,020707,2021
